ZS,AS_,VILLAGE,LON,LAT,POPULATION,DEF_TYPE,PROVINCE,OFFICIEL
BOKORO,IPEKE,IPEKE,18.25284722,-2.519305557,,VILLAGE,MAI - NDOMBE,oui
BOKORO,IPEKE,MPANZA I,18.09277778,-2.444652779,,VILLAGE,MAI - NDOMBE,oui
BOKORO,IPEKE,MPANZA II,18.08777778,-2.413125001,,VILLAGE,MAI - NDOMBE,oui
BOKORO,IPEKE,NTANEMOKWELE,18.135625,-2.46326389,,VILLAGE,MAI - NDOMBE,oui
BOKORO,IPEKE,MBUBA,18.24154035,-2.48031328,,VILLAGE,MAI - NDOMBE,oui
BOKORO,IPEKE,MBE,18.25979167,-2.529930557,,VILLAGE,MAI - NDOMBE,oui
BOKORO,IPEKE,KESEKE,18.20618055,-2.51013889,,VILLAGE,MAI - NDOMBE,oui
BOKORO,IPEKE,MIKILI,18.25097222,-2.569236112,,VILLAGE,MAI - NDOMBE,oui
BOKORO,IPEKE,MUANYA,18.23715278,-2.596875001,,VILLAGE,MAI - NDOMBE,oui
BOKORO,KUTU CENTRAL,BASIKI,18.13467026,-2.719860077,,VILLAGE,MAI - NDOMBE,oui
BOKORO,KUTU CENTRAL,KEMPILI,18.11055555,-2.735486112,,VILLAGE,MAI - NDOMBE,oui
BOKORO,KUTU CENTRAL,Zampi,18.06638889,-2.758472223,,VILLAGE,MAI - NDOMBE,oui
BOKORO,KUTU LUMUMBA,LUMUMBA I,18.15816228,-2.719621568,,VILLAGE,MAI - NDOMBE,oui
BOKORO,KUTU LUMUMBA,LUMUMBA II,18.15847222,-2.723055557,,VILLAGE,MAI - NDOMBE,oui
BOKORO,KUTU CENTRAL,Cite Kutu,18.14208334,-2.724771403,,VILLAGE,MAI - NDOMBE,oui
BOKORO,KUTU LUMUMBA,BILONDI,18.17377749,-2.715606227,,VILLAGE,MAI - NDOMBE,oui
BOKORO,KUTU LUMUMBA,MPOSO,18.19229167,-2.696458334,,VILLAGE,MAI - NDOMBE,oui
BOKORO,KEMBA LELAW,KEMBA LELAW,18.41414665,-2.750592134,,VILLAGE,MAI - NDOMBE,oui
BOKORO,KEMBA LELAW,NKALA,18.37465278,-2.750416667,,VILLAGE,MAI - NDOMBE,oui
BOKORO,KEMBA LELAW,IBAA,18.34461401,-2.769416717,,VILLAGE,MAI - NDOMBE,oui
BOKORO,KEMBA LELAW,WENZE,18.30597222,-2.772916668,,VILLAGE,MAI - NDOMBE,oui
BOKORO,ELOMBE,ISHO I,18.23532596,-2.7797449,,VILLAGE,MAI - NDOMBE,oui
BOKORO,KEMBA LELAW,Nkili-Nkili,18.30605061,-2.59273694,,VILLAGE,MAI - NDOMBE,oui
BOKORO,KEMBA LELAW,Kebo,18.30013889,-2.609236112,,VILLAGE,MAI - NDOMBE,oui
BOKORO,BOMO,BOMO I,18.483125,-2.689236112,,VILLAGE,MAI - NDOMBE,oui
BOKORO,BOMO,BOMO II,18.48138889,-2.692291668,,VILLAGE,MAI - NDOMBE,oui
BOKORO,BOMO,BENKONKOLE,18.53770833,-2.661736112,,VILLAGE,MAI - NDOMBE,oui
BOKORO,BOMO,MONGOTAOTUA I,18.51388889,-2.620833335,,VILLAGE,MAI - NDOMBE,oui
BOKORO,BOMO,MONGOTAOTUA II,18.51138889,-2.62263889,,VILLAGE,MAI - NDOMBE,oui
BOKORO,BOTEMOLA,BOTEMOLA,18.76881944,-2.604166668,,VILLAGE,MAI - NDOMBE,oui
BOKORO,BOTEMOLA,LOKUMU,18.63986111,-2.644930557,,VILLAGE,MAI - NDOMBE,oui
BOKORO,BOTEMOLA,ILOMONKITA,18.71997414,-2.630976016,,VILLAGE,MAI - NDOMBE,oui
BOKORO,BOTEMOLA,ILEE,18.75417889,-2.674103746,,VILLAGE,MAI - NDOMBE,oui
BOKORO,BOTEMOLA,NGELI,18.6265803,-2.544423122,,VILLAGE,MAI - NDOMBE,oui
BOKORO,BOTEMOLA,MPESIMO,18.70916667,-2.499097223,,VILLAGE,MAI - NDOMBE,oui
BOKORO,BOTEMOLA,IPOKU,18.68670183,-2.581656948,,VILLAGE,MAI - NDOMBE,oui
BOKORO,BOTEMOLA,Ngolosenge,18.93638889,-2.547361112,,VILLAGE,MAI - NDOMBE,oui
BOKORO,LUNA,LUNA,18.88409722,-2.732152779,,VILLAGE,MAI - NDOMBE,oui
BOKORO,LUNA,ISAKA,18.81486111,-2.662569446,,VILLAGE,MAI - NDOMBE,oui
BOKORO,LUNA,ILOMO,18.83486534,-2.692206731,,VILLAGE,MAI - NDOMBE,oui
BOKORO,LUNA,LOLA,18.86092044,-2.701843548,,VILLAGE,MAI - NDOMBE,oui
BOKORO,LUNA,BONGA,18.90243055,-2.75888889,,VILLAGE,MAI - NDOMBE,oui
BOKORO,LUNA,YASSA,18.95476162,-2.782102767,,VILLAGE,MAI - NDOMBE,oui
BOKORO,LUNA,BOSUE,18.97227446,-2.757927443,,VILLAGE,MAI - NDOMBE,oui
BOKORO,LUNA,MBETE NKOY,19.00798611,-2.806875001,,VILLAGE,MAI - NDOMBE,oui
BOKORO,LUNA,Bongisa Mabla,18.87138889,-2.782152778,,VILLAGE,MAI - NDOMBE,oui
BOKORO,LUNA,Ikeli,18.88131944,-2.779166668,,VILLAGE,MAI - NDOMBE,oui
BOKORO,LUNA,BOTEKO,18.88493055,-2.777013889,,VILLAGE,MAI - NDOMBE,oui
BOKORO,BOKUNGU,BOKUNGU,18.80208333,-2.921527779,,VILLAGE,MAI - NDOMBE,oui
BOKORO,BOKUNGU,DUMA I,18.72527778,-2.944583334,,VILLAGE,MAI - NDOMBE,oui
BOKORO,BOKUNGU,MPOMA,18.82372562,-2.844020905,,VILLAGE,MAI - NDOMBE,oui
BOKORO,BOKUNGU,Bokalo,18.81979166,-2.828541667,,VILLAGE,MAI - NDOMBE,oui
BOKORO,BOKUNGU,Wenge,18.81944444,-2.812916667,,VILLAGE,MAI - NDOMBE,oui
BOKORO,BOKUNGU,Baseki,18.82590278,-2.810694445,,VILLAGE,MAI - NDOMBE,oui
BOKORO,BOKUNGU,Ipaki,18.83011451,-2.806455319,,VILLAGE,MAI - NDOMBE,oui
BOKORO,BOKUNGU,Bdapa,18.86329848,-2.789085452,,VILLAGE,MAI - NDOMBE,oui
BOKORO,BOKUNGU,Lotano,18.851304,-2.799855,,VILLAGE,MAI - NDOMBE,oui
BOKORO,LUNA,Ferme Boseki,18.84104166,-2.770208334,,VILLAGE,MAI - NDOMBE,oui
BOKORO,BOKUNGU,Pompombo-Indigene,18.87902778,-3.090000001,,VILLAGE,MAI - NDOMBE,oui
BOKORO,BOKUNGU,DUMA II,18.70388889,-2.95201389,,VILLAGE,MAI - NDOMBE,oui
BOKORO,BOKUNGU,Boliano,18.78590278,-2.925972223,,VILLAGE,MAI - NDOMBE,oui
BOKORO,BOKUNGU,BOMANGA,18.78027778,-2.931875001,,VILLAGE,MAI - NDOMBE,oui
BOKORO,BOKUNGU,Libo I,18.79236111,-2.887152779,,VILLAGE,MAI - NDOMBE,oui
BOKORO,VUNA,VUNA,18.59548611,-2.877847223,,VILLAGE,MAI - NDOMBE,oui
BOKORO,VUNA,BOKU,18.61715278,-2.874375001,,VILLAGE,MAI - NDOMBE,oui
BOKORO,VUNA,SANYA,18.49034722,-2.802500001,,VILLAGE,MAI - NDOMBE,oui
BOKORO,VUNA,Ebele,18.49673611,-2.804166668,,VILLAGE,MAI - NDOMBE,oui
BOKORO,VUNA,Kolo,18.44136143,-2.815468696,,VILLAGE,MAI - NDOMBE,oui
BOKORO,BOMO,BOSA,18.61875,-2.694444446,,VILLAGE,MAI - NDOMBE,oui
BOKORO,TOLO I,EKOTO,18.68131944,-3.036250001,,VILLAGE,MAI - NDOMBE,oui
BOKORO,TOLO I,IBAKU,18.634375,-2.961736112,,VILLAGE,MAI - NDOMBE,oui
BOKORO,BOKUNGU,SAPEZA,18.66944444,-2.95763889,,VILLAGE,MAI - NDOMBE,oui
BOKORO,TOLO I,MASSAMBA,18.64493055,-3.007777779,,VILLAGE,MAI - NDOMBE,oui
BOKORO,TOLO I,IKWI,18.66270833,-3.054861112,,VILLAGE,MAI - NDOMBE,oui
BOKORO,TOLO I,MBAIN,18.64486111,-3.02638889,,VILLAGE,MAI - NDOMBE,oui
BOKORO,BOKUNGU,MBANTALE,18.70555555,-3.014722223,,VILLAGE,MAI - NDOMBE,oui
BOKORO,TOLO I,EBEMVU,18.60604166,-3.006666668,,VILLAGE,MAI - NDOMBE,oui
BOKORO,TOLO I,TOLO I,18.58201389,-2.968680557,,VILLAGE,MAI - NDOMBE,oui
BOKORO,TOLO II,TOLO II,18.56736111,-2.962986112,,VILLAGE,MAI - NDOMBE,oui
BOKORO,TOLO I,BELEWE,18.57388889,-2.998472223,,VILLAGE,MAI - NDOMBE,oui
BOKORO,TOLO II,NADJOKO,18.53416667,-2.929375001,,VILLAGE,MAI - NDOMBE,oui
BOKORO,TOLO II,LUALI PEKE,18.57581572,-2.920608315,,VILLAGE,MAI - NDOMBE,oui
BOKORO,VUNA,NDATIENNE,18.59020833,-2.907777778,,VILLAGE,MAI - NDOMBE,oui
BOKORO,VUNA,BELELI,18.58541667,-2.9125,,VILLAGE,MAI - NDOMBE,oui
BOKORO,MOTANGIRI,MOTANGIRI,18.47782507,-2.937610459,,VILLAGE,MAI - NDOMBE,oui
BOKORO,MOTANGIRI,KESSIE,18.45458333,-2.910069445,,VILLAGE,MAI - NDOMBE,oui
BOKORO,MOTANGIRI,FATIMA,18.4504929,-2.89911078,,VILLAGE,MAI - NDOMBE,oui
BOKORO,MOTANGIRI,MUNTU CITE,18.43446859,-2.886948212,,VILLAGE,MAI - NDOMBE,oui
BOKORO,KEMBA LELAW,KEMBOLE,18.40638889,-2.809236112,,VILLAGE,MAI - NDOMBE,oui
BOKORO,KEMBA LELAW,NSAVAA,18.40423611,-2.807847223,,VILLAGE,MAI - NDOMBE,oui
BOKORO,KEMBA LELAW,KINGABWA,18.39777778,-2.802500001,,VILLAGE,MAI - NDOMBE,oui
BOKORO,KEMBA LELAW,MPOMBU,18.32616454,-2.76982433,,VILLAGE,MAI - NDOMBE,oui
BOKORO,KEMBA LELAW,KEMPAA,18.31515887,-2.772387295,,VILLAGE,MAI - NDOMBE,oui
BOKORO,KEMBA LELAW,Wenze II,18.29958333,-2.77263889,,VILLAGE,MAI - NDOMBE,oui
BOKORO,ELOMBE,MPIANKANI,18.20027778,-2.839444441,,VILLAGE,MAI - NDOMBE,oui
BOKORO,ELOMBE,NSEMAMPUE,18.27076832,-2.962162331,,VILLAGE,MAI - NDOMBE,oui
BOKORO,ELOMBE,ISHO II,18.22316239,-2.773364693,,VILLAGE,MAI - NDOMBE,oui
BOKORO,BOKORO,KEBEE,18.41248838,-2.874371194,,VILLAGE,MAI - NDOMBE,oui
BOKORO,BOKORO,NSELE,18.37112006,-2.874655387,,VILLAGE,MAI - NDOMBE,oui
BOKORO,BOKORO,BOKORO,18.37070029,-2.864936332,,VILLAGE,MAI - NDOMBE,oui
BOKORO,NSANGA NSANGA,Nsanga Nsanga,18.36412108,-2.859653929,,VILLAGE,MAI - NDOMBE,oui
BOKORO,NSANGA NSANGA,LIZIBA,18.35470546,-2.882719851,,VILLAGE,MAI - NDOMBE,oui
BOKORO,NSANGA NSANGA,NGIRI,18.351875,-2.888680556,,VILLAGE,MAI - NDOMBE,oui
BOKORO,NSANGA NSANGA,MONGALI I,18.35570364,-2.875930902,,VILLAGE,MAI - NDOMBE,oui
BOKORO,NSANGA NSANGA,MONGALI II,18.35868055,-2.875972223,,VILLAGE,MAI - NDOMBE,oui
BOKORO,NSANGA NSANGA,IKUMA,18.35152778,-2.871736112,,VILLAGE,MAI - NDOMBE,oui
BOKORO,SEKESIRI,KEMPA,18.41439471,-2.942548532,,VILLAGE,MAI - NDOMBE,oui
BOKORO,SEKESIRI,SEKESIRI,18.36786867,-3.00358052,,VILLAGE,MAI - NDOMBE,oui
BOKORO,SEKESIRI,MBOON,18.394046,-3.015148,,VILLAGE,MAI - NDOMBE,oui
BOKORO,SEKESIRI,MASAKO,18.373016,-2.9632,,VILLAGE,MAI - NDOMBE,oui
BOKORO,SEKESIRI,NSEMOKAW,18.39625,-2.975208334,,VILLAGE,MAI - NDOMBE,oui
BOKORO,ELOMBE,MOSEJON,18.29383777,-2.844683048,,VILLAGE,MAI - NDOMBE,oui
BOKORO,ELOMBE,ELOMBE,18.24533956,-2.859200674,,VILLAGE,MAI - NDOMBE,oui
BOKORO,ELOMBE,NKUISHIEN,18.27229167,-2.894791668,,VILLAGE,MAI - NDOMBE,oui
BOKORO,ELOMBE,IBEE,18.224375,-2.882916668,,VILLAGE,MAI - NDOMBE,oui
BOKORO,ELOMBE,NTALE,18.20578404,-2.907969402,,VILLAGE,MAI - NDOMBE,oui
BOKORO,NDJAMPIE,NZAMPIE,18.0775,-2.811527779,,VILLAGE,MAI - NDOMBE,oui
BOKORO,NDJAMPIE,PAY PAY,18.15729167,-2.879097223,,VILLAGE,MAI - NDOMBE,oui
BOKORO,NDJAMPIE,IKOKO,18.11777778,-2.926597222,,VILLAGE,MAI - NDOMBE,oui
BOKORO,LUNA,Bokama,18.96743055,-2.557986112,,VILLAGE,MAI - NDOMBE,oui
BOKORO,LUNA,NKATA,18.87555681,-2.778807642,,VILLAGE,MAI - NDOMBE,oui
BOKORO,KEMBA LELAW,SUKULU,18.39192082,-2.745883129,,VILLAGE,MAI - NDOMBE,oui
BOKORO,KEMBA LELAW,GRUM,18.46159722,-2.750902779,,VILLAGE,MAI - NDOMBE,oui
BOKORO,KUTU CENTRAL,CDTC Kutu,18.14267903,-2.727335774,,VILLAGE,MAI - NDOMBE,oui
BOKORO,KUTU CENTRAL,BOYU,18.10541667,-2.74638889,,VILLAGE,MAI - NDOMBE,oui
BOKORO,KUTU CENTRAL,Ferme Mbunu,18.02138889,-2.765694445,,VILLAGE,MAI - NDOMBE,oui
BOKORO,ISAKA MBOLE,ISAKA MBOLE,17.95210075,-3.397540092,,VILLAGE,MAI - NDOMBE,oui
BOKORO,BIEN,BIEN,18.16645193,-3.43248265,,VILLAGE,MAI - NDOMBE,oui
BOKORO,MOKILA,MOKILA,18.248882,-3.412054,,VILLAGE,MAI - NDOMBE,oui
BOKORO,MAKAW,NSELE,18.32555582,-3.487832707,,VILLAGE,MAI - NDOMBE,oui
BOKORO,SEMENDUA CEBU,SEMENDUA MISSION,18.13572201,-3.233357882,,VILLAGE,MAI - NDOMBE,oui
BOKORO,SEMENDUA CITE,Cite Semendua,18.11444444,-3.230208333,,VILLAGE,MAI - NDOMBE,oui
BOKORO,BOYON,NSONTIN,17.99180031,-3.161109924,,VILLAGE,MAI - NDOMBE,oui
BOKORO,KEMPIMPI,KEMPIMPI,18.26600129,-3.0566337,,VILLAGE,MAI - NDOMBE,oui
BOKORO,KEMBA SECTEUR,KEMBA SECTEUR,18.420449,-3.170314,,VILLAGE,MAI - NDOMBE,oui
BOKORO,ISAKA MBOLE,IZANGANI,17.972402,-3.381271,,VILLAGE,MAI - NDOMBE,oui
BOKORO,ISAKA MBOLE,ONANKIE,17.89958333,-3.208819445,,VILLAGE,MAI - NDOMBE,oui
BOKORO,ISAKA MBOLE,MIBIE,17.93381944,-3.231597223,,VILLAGE,MAI - NDOMBE,oui
BOKORO,ISAKA MBOLE,MALOO,17.90979167,-3.221666667,,VILLAGE,MAI - NDOMBE,oui
BOKORO,ISAKA MBOLE,Semokfu,17.89833333,-3.298680556,,VILLAGE,MAI - NDOMBE,oui
BOKORO,SEMENDUA CITE,IPAY,17.97854167,-3.229027778,,VILLAGE,MAI - NDOMBE,oui
BOKORO,BOYON,SEMANA,18.06569444,-3.106666667,,VILLAGE,MAI - NDOMBE,oui
BOKORO,BOYON,SEKETUA,18.02147862,-3.090347648,,VILLAGE,MAI - NDOMBE,oui
BOKORO,BOYON,BOYON,18.04224239,-3.036118467,,VILLAGE,MAI - NDOMBE,oui
BOKORO,BOYON,KEBALEBA,18.02945442,-3.012709062,,VILLAGE,MAI - NDOMBE,oui
BOKORO,BOYON,BOTSHIE,18.01504024,-2.968195835,,VILLAGE,MAI - NDOMBE,oui
BOKORO,BOYON,MUSIDJON,18.17986227,-3.009384487,,VILLAGE,MAI - NDOMBE,oui
BOKORO,BOYON,NKUISHIEN,18.19796282,-2.966575481,,VILLAGE,MAI - NDOMBE,oui
BOKORO,BOYON,NSEMABWA I ET 2,18.13263889,-3.057638889,,VILLAGE,MAI - NDOMBE,oui
BOKORO,NDJAMPIE,MBAN,18.01478004,-2.842089891,,VILLAGE,MAI - NDOMBE,oui
BOKORO,NDJAMPIE,MBWAN,18.03727838,-2.912380228,,VILLAGE,MAI - NDOMBE,oui
BOKORO,NDJAMPIE,MPUI,18.01451389,-2.894930556,,VILLAGE,MAI - NDOMBE,oui
BOKORO,NDJAMPIE,MOSHEMINE,18.13166667,-2.859791667,,VILLAGE,MAI - NDOMBE,oui
BOKORO,NDJAMPIE,BOTOKO,18.100625,-2.886041667,,VILLAGE,MAI - NDOMBE,oui
BOKORO,BIEN,KESE,18.11252,-3.404623,,VILLAGE,MAI - NDOMBE,oui
BOKORO,BIEN,NSEDJON,18.08969304,-3.398821513,,VILLAGE,MAI - NDOMBE,oui
BOKORO,BIEN,SEKO,18.05043983,-3.376810074,,VILLAGE,MAI - NDOMBE,oui
BOKORO,BIEN,MAKAYA,18.02473424,-3.376505188,,VILLAGE,MAI - NDOMBE,oui
BOKORO,BIEN,KIMBAMBILI,18.17817353,-3.411662519,,VILLAGE,MAI - NDOMBE,oui
BOKORO,BIEN,NSILO,18.209586,-3.395162,,VILLAGE,MAI - NDOMBE,oui
BOKORO,BIEN,Nselenkey,18.15659722,-3.326041667,,VILLAGE,MAI - NDOMBE,oui
BOKORO,MAKAW,BAYONGO I,18.31861111,-3.481666667,,VILLAGE,MAI - NDOMBE,oui
BOKORO,MAKAW,BAYONGO II,18.32270833,-3.478541667,,VILLAGE,MAI - NDOMBE,oui
BOKORO,MAKAW,KIBOMANGO I,18.32,-3.485416667,,VILLAGE,MAI - NDOMBE,oui
BOKORO,MAKAW,KIBOMANGO II,18.32236111,-3.482222223,,VILLAGE,MAI - NDOMBE,oui
BOKORO,MAKAW,MAVULA I,18.32240017,-3.487729231,,VILLAGE,MAI - NDOMBE,oui
BOKORO,MAKAW,MAVULA II,18.32611111,-3.484236111,,VILLAGE,MAI - NDOMBE,oui
BOKORO,MAKAW,Kwimengon,18.366782,-3.41058,,VILLAGE,MAI - NDOMBE,oui
BOKORO,MOKILA,NSEKESHE,18.38402778,-3.392916667,,VILLAGE,MAI - NDOMBE,oui
BOKORO,MOKILA,NKOUNG,18.23131944,-3.394305556,,VILLAGE,MAI - NDOMBE,oui
BOKORO,MOKILA,NSEMAFUNI,18.259641,-3.418113,,VILLAGE,MAI - NDOMBE,oui
BOKORO,MOKILA,BOKWE,18.24701389,-3.394652778,,VILLAGE,MAI - NDOMBE,oui
BOKORO,MOKILA,NSEMOKI,18.3493181,-3.329388434,,VILLAGE,MAI - NDOMBE,oui
BOKORO,SEMENDUA CEBU,BOMPIA,18.2975,-3.184930556,,VILLAGE,MAI - NDOMBE,oui
BOKORO,SEMENDUA CEBU,CDTC Semendua,18.13519589,-3.236571602,,VILLAGE,MAI - NDOMBE,oui
BOKORO,SEMENDUA CEBU,Membaw,18.18666667,-3.225833334,,VILLAGE,MAI - NDOMBE,oui
BOKORO,SEMENDUA CEBU,Semoki,18.24583333,-3.228958333,,VILLAGE,MAI - NDOMBE,oui
BOKORO,SEMENDUA CITE,MPAA,18.010741,-3.267323,,VILLAGE,MAI - NDOMBE,oui
BOKORO,SEMENDUA CITE,NSEMAMPIA,18.1738579,-3.150496773,,VILLAGE,MAI - NDOMBE,oui
BOKORO,SEMENDUA CITE,NSELEFUNI,18.174429,-3.169233,,VILLAGE,MAI - NDOMBE,oui
BOKORO,SEMENDUA CITE,MAZOKO,18.118134,-3.117179,,VILLAGE,MAI - NDOMBE,oui
BOKORO,SEMENDUA CITE,KAAKA,18.099146,-3.143679,,VILLAGE,MAI - NDOMBE,oui
BOKORO,SEMENDUA CITE,NSEMAKAO,18.13133035,-3.146903811,,VILLAGE,MAI - NDOMBE,oui
BOKORO,SEMENDUA CITE,KEBI,18.2096711,-3.070423903,,VILLAGE,MAI - NDOMBE,oui
BOKORO,SEMENDUA CITE,Botshuni,18.109651,-3.250705,,VILLAGE,MAI - NDOMBE,oui
BOKORO,SEMENDUA CITE,ALIBA A,18.10888889,-3.240555556,,VILLAGE,MAI - NDOMBE,oui
BOKORO,SEMENDUA CITE,ALIBA B,18.106875,-3.238541667,,VILLAGE,MAI - NDOMBE,oui
BOKORO,SEMENDUA CITE,MPINAJIBA A,18.11729167,-3.235972222,,VILLAGE,MAI - NDOMBE,oui
BOKORO,SEMENDUA CITE,MPINAJIBA B,18.11347222,-3.232777778,,VILLAGE,MAI - NDOMBE,oui
BOKORO,SEMENDUA CITE,KABILA A,18.12135451,-3.232693807,,VILLAGE,MAI - NDOMBE,oui
BOKORO,SEMENDUA CITE,KABILA B,18.11980373,-3.226878588,,VILLAGE,MAI - NDOMBE,oui
BOKORO,KEMBA SECTEUR,BOKWI,18.37095619,-3.207161074,,VILLAGE,MAI - NDOMBE,oui
BOKORO,KEMBA SECTEUR,MANGANGA,18.307799,-3.292483,,VILLAGE,MAI - NDOMBE,oui
BOKORO,KEMBA SECTEUR,LISANGA,18.46244797,-3.088681804,,VILLAGE,MAI - NDOMBE,oui
BOKORO,KEMBA SECTEUR,KEBINSA,18.49861694,-3.0100127,,VILLAGE,MAI - NDOMBE,oui
BOKORO,KEMBA SECTEUR,MBAN,18.51702494,-3.03346313,,VILLAGE,MAI - NDOMBE,oui
BOKORO,KEMBA SECTEUR,NKAW,18.4352262,-3.118619323,,VILLAGE,MAI - NDOMBE,oui
BOKORO,KEMBA SECTEUR,NSEDJA,18.48842889,-3.05934026,,VILLAGE,MAI - NDOMBE,oui
BOKORO,KEMBA SECTEUR,LEPAA,18.481605,-3.066141,,VILLAGE,MAI - NDOMBE,oui
BOKORO,KEMBA SECTEUR,NSHAW,18.44250003,-3.035562281,,VILLAGE,MAI - NDOMBE,oui
BOKORO,KEMBA SECTEUR,NSITWA,18.27607577,-3.268853548,,VILLAGE,MAI - NDOMBE,oui
BOKORO,KEMBA SECTEUR,MASHAW,18.330255,-3.139435,,VILLAGE,MAI - NDOMBE,oui
BOKORO,KEMBA SECTEUR,Kasesie,18.32271853,-3.232775823,,VILLAGE,MAI - NDOMBE,oui
BOKORO,KEMBA SECTEUR,Selesan,18.33651644,-3.30998393,,VILLAGE,MAI - NDOMBE,oui
BOKORO,KEMBA SECTEUR,Kelubi,18.362344,-3.166291,,VILLAGE,MAI - NDOMBE,oui
BOKORO,KEMBA SECTEUR,Mushie,18.37735578,-3.138011169,,VILLAGE,MAI - NDOMBE,oui
BOKORO,MOTANGIRI,BOMBAY,18.47321311,-2.971674677,,VILLAGE,MAI - NDOMBE,oui
BOKORO,KEMPIMPI,IBAN,18.308438,-3.00067,,VILLAGE,MAI - NDOMBE,oui
BOKORO,KEMPIMPI,ELI MOKE,18.237654,-3.092134,,VILLAGE,MAI - NDOMBE,oui
BOKORO,KEMPIMPI,WANGILE,18.25171125,-3.078285989,,VILLAGE,MAI - NDOMBE,oui
BOKORO,KEMPIMPI,MAPUO,18.22913712,-3.11222089,,VILLAGE,MAI - NDOMBE,oui
BOKORO,KEMPIMPI,NSEMPILA,18.309723,-3.087947,,VILLAGE,MAI - NDOMBE,oui
BOKORO,KEMPIMPI,MBUNKUI,18.269365,-3.026633,,VILLAGE,MAI - NDOMBE,oui
BOKORO,KEMPIMPI,Selembili,18.2673,-3.00083,,VILLAGE,MAI - NDOMBE,oui
BOKORO,SEKESIRI,NSEMOBWA,18.323599,-2.955353,,VILLAGE,MAI - NDOMBE,oui
BOKORO,SEKESIRI,MAZOKO,18.42222222,-2.992569445,,VILLAGE,MAI - NDOMBE,oui
BOKORO,BOKORO,NKOLO,18.37652778,-2.864375001,,VILLAGE,MAI - NDOMBE,oui
BOKORO,KEMBA LELAW,Quartier II,18.41141488,-2.748948762,,VILLAGE,MAI - NDOMBE,oui
BOKORO,KEMBA LELAW,Quartier I,18.41536579,-2.752518608,,VILLAGE,MAI - NDOMBE,oui
BOKORO,KUTU CENTRAL,POURQUOI PAS,18.14736111,-2.722083334,,VILLAGE,MAI - NDOMBE,oui
BOKORO,KUTU CENTRAL,MATIMBA,18.13845147,-2.721822077,,VILLAGE,MAI - NDOMBE,oui
BOKORO,KUTU CENTRAL,BOBOLIKO,18.14245965,-2.728731606,,VILLAGE,MAI - NDOMBE,oui
BOKORO,KUTU LUMUMBA,GOLF,18.15571571,-2.726057287,,VILLAGE,MAI - NDOMBE,oui
YASA BONGA,BENGI,BENGI,17.75883,-4.466010094,483,CS,KWILU,oui
YASA BONGA,BENGI,BUKANGA,17.75261,-4.401360035,838,VILLAGE,KWILU,oui
YASA BONGA,BENGI,Camp Ecole Mayanda,17.708,-4.472760201,,VILLAGE,KWILU,oui
YASA BONGA,BENGI,Ferme Bangongo,17.75014,-4.437920094,,FERME,KWILU,oui
YASA BONGA,BENGI,Ferme Bubi,17.76457,-4.428339958,,FERME,KWILU,oui
YASA BONGA,BENGI,Ferme Bukanga,17.74862,-4.402180195,,FERME,KWILU,oui
YASA BONGA,BENGI,Ferme Kibay,17.74066,-4.436299801,,FERME,KWILU,oui
YASA BONGA,BENGI,Ferme Kikoshi,17.78839,-4.495699883,,FERME,KWILU,oui
YASA BONGA,BENGI,Ferme Kinsiona I/Ferme Kinsiona Ii,17.79669,-4.476759911,,FERME,KWILU,oui
YASA BONGA,BENGI,Ferme Kinsuka,17.74123,-4.501840115,,FERME,KWILU,oui
YASA BONGA,BENGI,Ferme Luketi,17.76667,-4.431009769,,FERME,KWILU,oui
YASA BONGA,BENGI,Ferme Mbwamusengi,17.76008,-4.438839912,,FERME,KWILU,oui
YASA BONGA,BENGI,Ferme Miyamba,17.67284,-4.476180077,,FERME,KWILU,oui
YASA BONGA,BENGI,Ferme Ngamuma,17.78717,-4.488130093,,FERME,KWILU,oui
YASA BONGA,BENGI,Ferme Putu,17.68459,-4.481219769,,FERME,KWILU,oui
YASA BONGA,BENGI,KIBAYI,17.72727,-4.416150093,1427,VILLAGE,KWILU,oui
YASA BONGA,BENGI,KINA NGULU,17.72366,-4.472060204,521,VILLAGE,KWILU,oui
YASA BONGA,BENGI,KINDUNDU,17.76699,-4.447000027,358,VILLAGE,KWILU,oui
YASA BONGA,BENGI,KINKWE,17.75657,-4.468589783,151,VILLAGE,KWILU,oui
YASA BONGA,BENGI,KISELEDI,17.71149,-4.472300053,358,VILLAGE,KWILU,oui
YASA BONGA,BENGI,MANIE,17.69586,-4.469230175,1362,PS,KWILU,oui
YASA BONGA,BENGI,MBANZA WAMBA NSEKE,17.81046,-4.4759202,366,VILLAGE,KWILU,oui
YASA BONGA,BENGI,MBAYA,17.74236111,-4.494375001,1016,VILLAGE,KWILU,oui
YASA BONGA,BENGI,MUWELE,17.79166,-4.50797987,443,VILLAGE,KWILU,oui
YASA BONGA,BENGI,Ngawaya,17.75748,-4.420670033,,VILLAGE,KWILU,oui
YASA BONGA,BENGI,POMBO,17.78764,-4.439040184,243,VILLAGE,KWILU,oui
YASA BONGA,BENGI,Pombo II,17.7692,-4.435400009,,VILLAGE,KWILU,oui
YASA BONGA,BILILI,BILILI CENTRE,18.04501,-4.27504015,765,CS,KWILU,oui
YASA BONGA,BILILI,BILILI VILLAGE,18.04024,-4.269050121,798,VILLAGE,KWILU,oui
YASA BONGA,BILILI,BUZIKI,18.04651,-4.288090229,2970,VILLAGE,KWILU,oui
YASA BONGA,BILILI,Camp Usine Manie,18.0675,-4.197159767,,VILLAGE,KWILU,oui
YASA BONGA,BILILI,Ferme Davin,18.04872,-4.299379826,,FERME,KWILU,oui
YASA BONGA,BILILI,Ferme Munkaya,18.08863,-4.270460129,,FERME,KWILU,oui
YASA BONGA,BILILI,Ferme Musambi,18.07238,-4.291860104,,FERME,KWILU,oui
YASA BONGA,BILILI,Ferme Ngamata,18.0043,-4.27008009,,FERME,KWILU,oui
YASA BONGA,BILILI,Ferme Wendo,18.07001,-4.284480095,,FERME,KWILU,oui
YASA BONGA,BILILI,KIKWIT MUBWA,18.05969,-4.218709946,1309,PS,KWILU,oui
YASA BONGA,BILILI,Kipumusu,18.09927,-4.296609879,,VILLAGE,KWILU,oui
YASA BONGA,BILILI,Mafamba,18.08337,-4.279270172,,VILLAGE,KWILU,oui
YASA BONGA,BILILI,MANIE,18.05988,-4.194620132,1241,VILLAGE,KWILU,oui
YASA BONGA,BILILI,MUBUA TOMUSABU,18.08211,-4.224110126,1146,PS,KWILU,oui
YASA BONGA,BILILI,MUNKAYA,18.09915,-4.263219833,1227,VILLAGE,KWILU,oui
YASA BONGA,BILILI,MUWAKA,18.10271,-4.266499996,228,VILLAGE,KWILU,oui
YASA BONGA,BILILI,PUKUSU,18.09035,-4.288760185,2904,PS,KWILU,oui
YASA BONGA,BUSEKE,Belle Espoir,17.98388,-4.206110001,,VILLAGE,KWILU,oui
YASA BONGA,BUSEKE,BUSEKE,17.97465278,-4.207986112,1508,CS,KWILU,oui
YASA BONGA,BUSEKE,BWATUNDU,18.0172,-4.176650047,4309,VILLAGE,KWILU,oui
YASA BONGA,BUSEKE,Camp CBCO Buseke,17.99836,-4.210450172,,VILLAGE,KWILU,oui
YASA BONGA,BUSEKE,DUNGA I,17.99742,-4.247980118,2067,VILLAGE,KWILU,oui
YASA BONGA,BUSEKE,DUNGA II,18.00331,-4.218510151,531,VILLAGE,KWILU,oui
YASA BONGA,BUSEKE,Ferme Bukulu I,17.98867,-4.144539833,,FERME,KWILU,oui
YASA BONGA,BUSEKE,Ferme Bukulu II,17.98875,-4.136290073,,FERME,KWILU,oui
YASA BONGA,BUSEKE,Ferme Kitasion,17.94827,-4.206230164,,FERME,KWILU,oui
YASA BONGA,BUSEKE,Ferme Kiteba,18.0124,-4.200640202,,FERME,KWILU,oui
YASA BONGA,BUSEKE,Ferme Lutshima,17.96315,-4.207399845,,FERME,KWILU,oui
YASA BONGA,BUSEKE,Ferme Mpay,17.95792,-4.188149929,,FERME,KWILU,oui
YASA BONGA,BUSEKE,Ferme Musuni II,17.95359,-4.206210136,,FERME,KWILU,oui
YASA BONGA,BUSEKE,Ferme Ndayi,17.95989,-4.198319912,,FERME,KWILU,oui
YASA BONGA,BUSEKE,KILAKA,17.95863,-4.174310207,66,VILLAGE,KWILU,oui
YASA BONGA,BUSEKE,LUDALA,17.9809,-4.208660126,648,VILLAGE,KWILU,oui
YASA BONGA,BUSEKE,MIPELENGE,17.99833,-4.186639786,1410,VILLAGE,KWILU,oui
YASA BONGA,BUSEKE,SANGI,17.95808,-4.191549778,196,VILLAGE,KWILU,oui
YASA BONGA,DUNDA,BAKONDA,17.67538,-4.636240005,322,VILLAGE,KWILU,oui
YASA BONGA,DUNDA,Bakonda II,17.67102,-4.636109829,,VILLAGE,KWILU,oui
YASA BONGA,DUNDA,Camp Kingoma,17.66458,-4.582019806,,VILLAGE,KWILU,oui
YASA BONGA,DUNDA,Camp Maday,17.66895,-4.577000141,,VILLAGE,KWILU,oui
YASA BONGA,DUNDA,Camp Mubidi,17.65278,-4.58739996,,VILLAGE,KWILU,oui
YASA BONGA,DUNDA,Camp Poste Kimwela,17.67617,-4.658899784,,VILLAGE,KWILU,oui
YASA BONGA,DUNDA,Camp Teba,17.68159,-4.582630157,,VILLAGE,KWILU,oui
YASA BONGA,DUNDA,DUNDA USINE,17.68152,-4.550389767,656,VILLAGE,KWILU,oui
YASA BONGA,DUNDA,DUNDA BAC,17.69701389,-4.566944446,1334,CS,KWILU,oui
YASA BONGA,DUNDA,Ferme Kimwela,17.66177,-4.681330204,,FERME,KWILU,oui
YASA BONGA,DUNDA,Ferme Mumbanda II,17.68663,-4.560110092,,FERME,KWILU,oui
YASA BONGA,DUNDA,KIMBIKI,17.67884,-4.642320156,433,VILLAGE,KWILU,oui
YASA BONGA,DUNDA,Kimbolo,17.69345,-4.567989826,,VILLAGE,KWILU,oui
YASA BONGA,DUNDA,KIMWELA,17.67604,-4.670499802,1200,VILLAGE,KWILU,oui
YASA BONGA,DUNDA,KIMWILU,17.68717557,-4.653746963,1441,PS,KWILU,oui
YASA BONGA,DUNDA,KINDAMBI,17.69117,-4.606800079,1151,VILLAGE,KWILU,oui
YASA BONGA,DUNDA,KINGOMA,17.68406,-4.612870216,335,VILLAGE,KWILU,oui
YASA BONGA,DUNDA,KISOKO,17.65388889,-4.66513889,1005,VILLAGE,KWILU,oui
YASA BONGA,DUNDA,MUMBANDA,17.69058,-4.56415987,1230,VILLAGE,KWILU,oui
YASA BONGA,DUNDA,TEBA,17.69574,-4.586299896,495,VILLAGE,KWILU,oui
YASA BONGA,FULA,Camp Kimbanguiste Kisangani,17.92015,-4.583839893,,VILLAGE,KWILU,oui
YASA BONGA,FULA,Camp Kimbanguiste Ngondi,17.96416,-4.617360115,,VILLAGE,KWILU,oui
YASA BONGA,FULA,Ferme Bangombe,17.91518,-4.569590092,,FERME,KWILU,oui
YASA BONGA,FULA,Ferme Kienande Kipulu,17.91508,-4.559080124,,FERME,KWILU,oui
YASA BONGA,FULA,Ferme Kimbulu I,17.94539,-4.591509819,,FERME,KWILU,oui
YASA BONGA,FULA,Ferme Kipangu,17.88781,-4.613180161,,FERME,KWILU,oui
YASA BONGA,FULA,Ferme Lupangu,17.93408,-4.67539978,,FERME,KWILU,oui
YASA BONGA,FULA,Ferme Mikwati,17.9628,-4.620049953,,FERME,KWILU,oui
YASA BONGA,FULA,Ferme Moanda,17.97904,-4.66094017,,FERME,KWILU,oui
YASA BONGA,FULA,Ferme Ngutu,17.89159,-4.621260166,,FERME,KWILU,oui
YASA BONGA,FULA,Ferme Zenga,17.95485,-4.636040211,,FERME,KWILU,oui
YASA BONGA,FULA,FULA CENTRE,17.95209,-4.637579918,1397,CSR,KWILU,oui
YASA BONGA,FULA,KAZAMBA,17.97672,-4.592959881,334,VILLAGE,KWILU,oui
YASA BONGA,FULA,KIKONGO,17.9188,-4.557179928,601,VILLAGE,KWILU,oui
YASA BONGA,FULA,KIKONJI MATADI,17.93895,-4.67332983,640,VILLAGE,KWILU,oui
YASA BONGA,FULA,KIKONJI MUFWENGE,17.95951,-4.57461977,492,VILLAGE,KWILU,oui
YASA BONGA,FULA,KIMBANZI,17.96411,-4.613609791,442,VILLAGE,KWILU,oui
YASA BONGA,FULA,KIMBEMBO,17.94533,-4.57818985,471,VILLAGE,KWILU,oui
YASA BONGA,FULA,KIMBULU,17.93196,-4.605140209,641,VILLAGE,KWILU,oui
YASA BONGA,FULA,KIMBUMBA,17.97503,-4.579319954,501,VILLAGE,KWILU,oui
YASA BONGA,FULA,KONGOMBE,17.95377,-4.603680134,75,VILLAGE,KWILU,oui
YASA BONGA,FULA,KINTOTILA,17.90219,-4.606040001,921,VILLAGE,KWILU,oui
YASA BONGA,FULA,KIPALANGA,17.91869,-4.629759789,543,VILLAGE,KWILU,oui
YASA BONGA,FULA,KISANGANI,17.92001,-4.585400105,293,PS,KWILU,oui
YASA BONGA,FULA,KISEMBO,17.96537,-4.664309978,1830,PS,KWILU,oui
YASA BONGA,FULA,KISOMBO,17.90585,-4.651150227,1147,VILLAGE,KWILU,oui
YASA BONGA,FULA,MAYUMBU,17.92932,-4.534379959,120,VILLAGE,KWILU,oui
YASA BONGA,FULA,MBANZA MUMBATA,17.91861,-4.558869839,697,VILLAGE,KWILU,oui
YASA BONGA,FULA,MIBOTI,17.97836,-4.597690105,999,VILLAGE,KWILU,oui
YASA BONGA,FULA,MITI MITI,17.95844,-4.649189949,471,VILLAGE,KWILU,oui
YASA BONGA,FULA,Musekele,17.98119,-4.556789875,,VILLAGE,KWILU,oui
YASA BONGA,FULA,NGONDI,17.97193,-4.60890007,3514,VILLAGE,KWILU,oui
YASA BONGA,FULA,NZOMBI,17.91987,-4.55479002,352,VILLAGE,KWILU,oui
YASA BONGA,FULA,PONT KAFI,17.97804,-4.551169872,112,VILLAGE,KWILU,oui
YASA BONGA,FULA,SAKAMBANZA,17.90317,-4.628069878,524,VILLAGE,KWILU,oui
YASA BONGA,FULA,YELENGE,17.96143,-4.625160217,146,VILLAGE,KWILU,oui
YASA BONGA,KIAMFU,Angar,18.0067,-4.361060143,,VILLAGE,KWILU,oui
YASA BONGA,KIAMFU,Beach Kizia I,18.01881,-4.449719906,,VILLAGE,KWILU,oui
YASA BONGA,KIAMFU,BULANGUNGA,17.94813,-4.372320175,262,VILLAGE,KWILU,oui
YASA BONGA,KIAMFU,Ferme Katukuni,18.02611,-4.424769878,,FERME,KWILU,oui
YASA BONGA,KIAMFU,Ferme Lucien,17.98611,-4.400990009,,FERME,KWILU,oui
YASA BONGA,KIAMFU,Ferme Luzolo,17.98392,-4.398920059,,FERME,KWILU,oui
YASA BONGA,KIAMFU,Ferme Mayeye,17.96201,-4.428030014,,FERME,KWILU,oui
YASA BONGA,KIAMFU,Ferme Muntaba,18.00358,-4.348840237,,FERME,KWILU,oui
YASA BONGA,KIAMFU,Ferme Pandu/Ferme Pitshen,17.98341,-4.403590202,,FERME,KWILU,oui
YASA BONGA,KIAMFU,Ferme Pingo,17.95604,-4.432740211,,FERME,KWILU,oui
YASA BONGA,KIAMFU,Galangi,17.96162,-4.358799934,,VILLAGE,KWILU,oui
YASA BONGA,KIAMFU,GALANGI,17.96379,-4.363699913,711,VILLAGE,KWILU,oui
YASA BONGA,KIAMFU,KIAMFU I,17.99894,-4.354569912,764,VILLAGE,KWILU,oui
YASA BONGA,KIAMFU,KIAMFU II,18.01481,-4.366509914,524,CS,KWILU,oui
YASA BONGA,KIAMFU,KIBWARI,18.00718,-4.338300228,949,VILLAGE,KWILU,oui
YASA BONGA,KIAMFU,Kilungu,17.9574,-4.413660049,,VILLAGE,KWILU,oui
YASA BONGA,KIAMFU,Kinginda,17.98313,-4.440159798,,VILLAGE,KWILU,oui
YASA BONGA,KIAMFU,KINGONZI,18.00293,-4.395750046,224,VILLAGE,KWILU,oui
YASA BONGA,KIAMFU,KINZAMBA,17.98540942,-4.345419237,178,VILLAGE,KWILU,oui
YASA BONGA,KIAMFU,KISEMBO,17.98542,-4.434949875,487,PS,KWILU,oui
YASA BONGA,KIAMFU,KIZIA I,18.02057,-4.43227005,941,VILLAGE,KWILU,oui
YASA BONGA,KIAMFU,KULUNGU,18.0098,-4.337719917,118,VILLAGE,KWILU,oui
YASA BONGA,KIAMFU,Lutala,17.98691,-4.437839985,,VILLAGE,KWILU,oui
YASA BONGA,KIAMFU,Minsafu/Muboko,18.00821,-4.362130165,,VILLAGE,KWILU,oui
YASA BONGA,KIAMFU,Mission Mama Muilu Kimbanguiste (Gangan),17.96273,-4.357600212,,PS,KWILU,oui
YASA BONGA,KIAMFU,MITOY CENTRE,18.02725,-4.376969814,810,VILLAGE,KWILU,oui
YASA BONGA,KIAMFU,MITOY VILLAGE,18.02595,-4.379129887,451,VILLAGE,KWILU,oui
YASA BONGA,KIAMFU,MUNDONDA,18.06062,-4.328849792,1263,VILLAGE,KWILU,oui
YASA BONGA,KIAMFU,NZOMBI,17.9768,-4.432990074,475,VILLAGE,KWILU,oui
YASA BONGA,KIAMFU,Nzombi II,17.98329,-4.435269833,,VILLAGE,KWILU,oui
YASA BONGA,KIAMFU,TETI / KILUNGU,17.9561,-4.407450199,479,VILLAGE,KWILU,oui
YASA BONGA,KIAMFU,Teti II,17.96167,-4.381979942,,VILLAGE,KWILU,oui
YASA BONGA,KIAMFU,Yheta,17.99454,-4.361740112,,VILLAGE,KWILU,oui
YASA BONGA,KIMBINGA,KINDONGO BA,18.06601,-4.606470108,320,VILLAGE,KWILU,oui
YASA BONGA,KIMBINGA,BWALAYULU MUSUNDA,18.04791,-4.613540173,1211,VILLAGE,KWILU,oui
YASA BONGA,KIMBINGA,BWALAYULU EZO,18.06607,-4.604770184,231,VILLAGE,KWILU,oui
YASA BONGA,KIMBINGA,Ferme Fumubingu,18.04981,-4.589670181,,FERME,KWILU,oui
YASA BONGA,KIMBINGA,KAMBOKO,18.05344,-4.579179764,36,FERME,KWILU,oui
YASA BONGA,KIMBINGA,Ferme Kanisa,18.08612,-4.603950024,,FERME,KWILU,oui
YASA BONGA,KIMBINGA,Ferme Kimwanza,18.04006,-4.583549976,,FERME,KWILU,oui
YASA BONGA,KIMBINGA,Ferme Kingala,18.06572,-4.565040112,,FERME,KWILU,oui
YASA BONGA,KIMBINGA,Ferme Kumbi,18.03593,-4.614820004,,FERME,KWILU,oui
YASA BONGA,KIMBINGA,Ferme Mundele Mwensi,18.05906,-4.55821991,,FERME,KWILU,oui
YASA BONGA,KIMBINGA,Ferme Mundunga,18.04576389,-4.562916667,,FERME,KWILU,oui
YASA BONGA,KIMBINGA,KIBWADI,18.06001,-4.579299927,582,VILLAGE,KWILU,oui
YASA BONGA,KIMBINGA,KIMBINGA I,18.05135,-4.595680237,439,VILLAGE,KWILU,oui
YASA BONGA,KIMBINGA,KIMBINGA II,18.04701,-4.589109898,220,VILLAGE,KWILU,oui
YASA BONGA,KIMBINGA,KIMBINGA MISSION,18.05454,-4.593560219,653,VILLAGE,KWILU,oui
YASA BONGA,KIMBINGA,Kimbinga Village,18.05937,-4.598529816,,CS,KWILU,oui
YASA BONGA,KIMBINGA,KIMBUMBA,18.09286,-4.574560165,425,VILLAGE,KWILU,oui
YASA BONGA,KIMBINGA,Kimbumba Munzedinga,18.10108,-4.577579975,,VILLAGE,KWILU,oui
YASA BONGA,KIMBINGA,Kimbumba Paroisse Protestante,18.08719,-4.568630219,,VILLAGE,KWILU,oui
YASA BONGA,KIMBINGA,KIMWANZA,18.03886,-4.586969852,1381,VILLAGE,KWILU,oui
YASA BONGA,KIMBINGA,KINDAMBI,18.08276,-4.565690041,706,PS,KWILU,oui
YASA BONGA,KIMBINGA,KINDONGO VILLAGE,18.06154,-4.601029873,304,VILLAGE,KWILU,oui
YASA BONGA,KIMBINGA,KINGULU,18.06966,-4.598830223,372,VILLAGE,KWILU,oui
YASA BONGA,KIMBINGA,KISELELE,18.03779,-4.574500084,243,VILLAGE,KWILU,oui
YASA BONGA,KIMBINGA,MAZINGA,18.04895833,-4.566527779,443,VILLAGE,KWILU,oui
YASA BONGA,KIMBURI,CAMP CROIX ROUGE,17.94131944,-4.335000001,211,HS,KWILU,oui
YASA BONGA,KIMBURI,Camp Etat Mokamo,17.94889,-4.320079803,,VILLAGE,KWILU,oui
YASA BONGA,KIMBURI,Camp Kimbanseke Mokamo,17.95612,-4.347330093,,VILLAGE,KWILU,oui
YASA BONGA,KIMBURI,CAMP PARCELLE,17.94938,-4.340139866,1375,VILLAGE,KWILU,oui
YASA BONGA,KIMBURI,CAMP STADE,17.94725,-4.324260235,1798,VILLAGE,KWILU,oui
YASA BONGA,KIMBURI,Camp Usine Mokamo,17.94191,-4.321899891,,VILLAGE,KWILU,oui
YASA BONGA,KIMBURI,Ferme Kahemba,17.99024,-4.28275013,,FERME,KWILU,oui
YASA BONGA,KIMBURI,Ferme Kansenami,17.97676,-4.330580235,,FERME,KWILU,oui
YASA BONGA,KIMBURI,Ferme Kibadi,17.96184,-4.293280125,,FERME,KWILU,oui
YASA BONGA,KIMBURI,Ferme Lubolo,17.92277,-4.354290009,,FERME,KWILU,oui
YASA BONGA,KIMBURI,Ferme Mumfi,18.00645,-4.324220181,,FERME,KWILU,oui
YASA BONGA,KIMBURI,Ferme Mvemve,17.92951,-4.345180035,,FERME,KWILU,oui
YASA BONGA,KIMBURI,KIMBURI,17.99547,-4.315130234,697,CS,KWILU,oui
YASA BONGA,KIMBURI,KINGOMBE,17.9812,-4.287670135,1280,PS,KWILU,oui
YASA BONGA,KIMBURI,KINKUKU,17.99345,-4.296199799,843,VILLAGE,KWILU,oui
YASA BONGA,KIMBURI,LUBOLO,17.96018,-4.351950169,549,VILLAGE,KWILU,oui
YASA BONGA,KIMBURI,MBAWIMI,17.99873,-4.316569805,658,VILLAGE,KWILU,oui
YASA BONGA,KIMBURI,Mokamo CKE Camp Usine,17.93672,-4.31908989,,PS,KWILU,oui
YASA BONGA,KIMBURI,MOKAMO MUNGIE,17.97340278,-4.326458335,634,VILLAGE,KWILU,oui
YASA BONGA,KIMBURI,PUPU,17.94969,-4.329070091,783,VILLAGE,KWILU,oui
YASA BONGA,KIMBWAYAMU,Air Congo,17.88307,-4.556739807,,VILLAGE,KWILU,oui
YASA BONGA,KIMBWAYAMU,KISALA VILLAGE,17.90062,-4.500239849,372,PS,KWILU,oui
YASA BONGA,KIMBWAYAMU,BONDO II,17.88609,-4.488110065,614,VILLAGE,KWILU,oui
YASA BONGA,KIMBWAYAMU,Bula Bula,17.86399,-4.523109913,,VILLAGE,KWILU,oui
YASA BONGA,KIMBWAYAMU,BULAMBEMBA,17.92867,-4.524600029,620,VILLAGE,KWILU,oui
YASA BONGA,KIMBWAYAMU,Camp Coin Kimbanda,17.92817,-4.515930176,,VILLAGE,KWILU,oui
YASA BONGA,KIMBWAYAMU,KISANGANI,17.92297401,-4.52025598,588,VILLAGE,KWILU,oui
YASA BONGA,KIMBWAYAMU,Ferme Kaboba,17.8304,-4.526490211,,FERME,KWILU,oui
YASA BONGA,KIMBWAYAMU,Ferme Kimbanda,17.87515,-4.54693985,,FERME,KWILU,oui
YASA BONGA,KIMBWAYAMU,Ferme Luzolo,17.82488,-4.563119888,,FERME,KWILU,oui
YASA BONGA,KIMBWAYAMU,Ferme Makengo,17.89045,-4.549759865,,FERME,KWILU,oui
YASA BONGA,KIMBWAYAMU,Ferme Matongo,17.82542,-4.531410217,,FERME,KWILU,oui
YASA BONGA,KIMBWAYAMU,Ferme Mukula Ngo,17.88065,-4.485099792,,FERME,KWILU,oui
YASA BONGA,KIMBWAYAMU,Ferme Mulundu,17.91793,-4.508460045,,FERME,KWILU,oui
YASA BONGA,KIMBWAYAMU,KAZAMBA VILLAGE,17.8435,-4.560929775,216,VILLAGE,KWILU,oui
YASA BONGA,KIMBWAYAMU,KILEMBE,17.86709,-4.562139988,953,VILLAGE,KWILU,oui
YASA BONGA,KIMBWAYAMU,KIMBANDA,17.87139,-4.559780121,847,VILLAGE,KWILU,oui
YASA BONGA,KIMBWAYAMU,KIMBWAYAMU,17.87952,-4.535890102,1311,CS,KWILU,oui
YASA BONGA,KIMBWAYAMU,KINKAMA,17.83543,-4.511069775,856,VILLAGE,KWILU,oui
YASA BONGA,KIMBWAYAMU,Kinsuka,17.87181,-4.552740097,,VILLAGE,KWILU,oui
YASA BONGA,KIMBWAYAMU,Kintotila,17.8605,-4.56362009,,VILLAGE,KWILU,oui
YASA BONGA,KIMBWAYAMU,KINTULU,17.91053,-4.504419804,1089,VILLAGE,KWILU,oui
YASA BONGA,KIMBWAYAMU,KIPINDI,17.85958,-4.523709774,615,VILLAGE,KWILU,oui
YASA BONGA,KIMBWAYAMU,KISALA POSTE,17.890625,-4.500555557,313,VILLAGE,KWILU,oui
YASA BONGA,KIMPUTU,Ferme Jacob,18.05107,-4.622960091,,FERME,KWILU,oui
YASA BONGA,KIMPUTU,Ferme Kimbimbi,18.05365,-4.636099815,,FERME,KWILU,oui
YASA BONGA,KIMPUTU,KIALU,18.05211,-4.65294981,1098,VILLAGE,KWILU,oui
YASA BONGA,KIMPUTU,KIMBAKALANGA,18.02792,-4.704909801,152,VILLAGE,KWILU,oui
YASA BONGA,KIMPUTU,KIMBIMBI VILLAGE,18.05387,-4.650559902,1052,PS,KWILU,oui
YASA BONGA,KIMPUTU,Kimbimbi Pamina,18.05647,-4.644750118,,VILLAGE,KWILU,oui
YASA BONGA,KIMPUTU,KIMPUTU MISSION,18.02936,-4.669809818,193,CS,KWILU,oui
YASA BONGA,KIMPUTU,KIMPUTU I,18.03113,-4.674670219,1389,VILLAGE,KWILU,oui
YASA BONGA,KIMPUTU,KIMPUTU II,18.02923611,-4.691111112,1150,VILLAGE,KWILU,oui
YASA BONGA,KIMPUTU,KIPALANGA,18.04132,-4.663879871,174,VILLAGE,KWILU,oui
YASA BONGA,KIMPUTU,MUYALU,18.05172,-4.655799866,267,VILLAGE,KWILU,oui
YASA BONGA,KINA KABOBA,BUKANGA,17.73251,-4.524720192,340,VILLAGE,KWILU,oui
YASA BONGA,KINA KABOBA,KAYEYE II,17.73076,-4.590559959,447,VILLAGE,KWILU,oui
YASA BONGA,KINA KABOBA,Ferme Mbaya,17.73366,-4.515639782,,FERME,KWILU,oui
YASA BONGA,KINA KABOBA,Ferme Mboko,17.74654,-4.567480087,,FERME,KWILU,oui
YASA BONGA,KINA KABOBA,Ferme Munganga,17.69959,-4.564610004,,VILLAGE,KWILU,oui
YASA BONGA,KINA KABOBA,Kayeye Poste,17.73020833,-4.573402779,,VILLAGE,KWILU,oui
YASA BONGA,KINA KABOBA,KAYEYE I,17.73693,-4.575049877,532,VILLAGE,KWILU,oui
YASA BONGA,KINA KABOBA,Kimwanza,17.74077,-4.523519993,,VILLAGE,KWILU,oui
YASA BONGA,KINA KABOBA,KINA I,17.75486111,-4.525972224,1215,CS,KWILU,oui
YASA BONGA,KINA KABOBA,KINA II,17.74424,-4.52670002,835,VILLAGE,KWILU,oui
YASA BONGA,KINA KABOBA,KINDIA I,17.74854,-4.54279995,345,VILLAGE,KWILU,oui
YASA BONGA,KINA KABOBA,KINDIA II,17.7521,-4.533539772,450,VILLAGE,KWILU,oui
YASA BONGA,KINA KABOBA,KISALA,17.70572,-4.560400009,656,VILLAGE,KWILU,oui
YASA BONGA,KINA KABOBA,KITUMBA,17.76399,-4.574379921,661,VILLAGE,KWILU,oui
YASA BONGA,KINA KABOBA,MABANZA,17.74869,-4.605340004,1342,VILLAGE,KWILU,oui
YASA BONGA,KINA KABOBA,MUFUMA,17.72195,-4.537230015,368,VILLAGE,KWILU,oui
YASA BONGA,KINA KABOBA,Mufuma II,17.70757,-4.546760082,,VILLAGE,KWILU,oui
YASA BONGA,KINA KABOBA,MUNDONDA,17.70222222,-4.548472223,1310,VILLAGE,KWILU,oui
YASA BONGA,KINA KABOBA,Mvengi,17.72685,-4.530940056,,VILLAGE,KWILU,oui
YASA BONGA,KITOY,DIBUNGU,17.76702,-4.356890202,350,VILLAGE,KWILU,oui
YASA BONGA,KITOY,KINZAMBA,17.78247,-4.341899872,123,VILLAGE,KWILU,oui
YASA BONGA,KITOY,BONDO,17.87799,-4.404940128,755,VILLAGE,KWILU,oui
YASA BONGA,KITOY,Bumba I,17.85233,-4.352880001,,VILLAGE,KWILU,oui
YASA BONGA,KITOY,Bumba II,17.85193,-4.348169804,,VILLAGE,KWILU,oui
YASA BONGA,KITOY,BUMBA,17.8533,-4.354780197,385,PS,KWILU,oui
YASA BONGA,KITOY,Camp Beach Bumba,17.85938,-4.348090172,,VILLAGE,KWILU,oui
YASA BONGA,KITOY,Ferme Bondo Kongo,17.88075,-4.402229786,,FERME,KWILU,oui
YASA BONGA,KITOY,Ferme Kadel,17.78938,-4.398749828,,FERME,KWILU,oui
YASA BONGA,KITOY,Ferme Kindambi,17.80216,-4.434649944,,FERME,KWILU,oui
YASA BONGA,KITOY,Ferme Mibubu,17.77285,-4.3822999,,FERME,KWILU,oui
YASA BONGA,KITOY,Ferme Mukwala,17.81186,-4.316549778,,FERME,KWILU,oui
YASA BONGA,KITOY,Ferme Musanzi,17.81832,-4.42539978,,FERME,KWILU,oui
YASA BONGA,KITOY,Ferme Mutsinzidi,17.78287,-4.360030174,,FERME,KWILU,oui
YASA BONGA,KITOY,Ferme Pay Pay,17.81647,-4.414750099,,FERME,KWILU,oui
YASA BONGA,KITOY,Ferme Sina Nzadi,17.83103,-4.319570065,,FERME,KWILU,oui
YASA BONGA,KITOY,KAMBUMBA,17.86706,-4.420440197,361,VILLAGE,KWILU,oui
YASA BONGA,KITOY,KIBOKO,17.7999,-4.37485981,138,VILLAGE,KWILU,oui
YASA BONGA,KITOY,Kiboko II,17.79613,-4.373859882,,VILLAGE,KWILU,oui
YASA BONGA,KITOY,KIMWANZA,17.79833,-4.372320175,943,VILLAGE,KWILU,oui
YASA BONGA,KITOY,KINDAMBI,17.80597,-4.4302001,173,VILLAGE,KWILU,oui
YASA BONGA,KITOY,KINGANGU,17.83523,-4.456240177,397,VILLAGE,KWILU,oui
YASA BONGA,KITOY,Kingoma Dibu,17.76702,-4.353519917,,VILLAGE,KWILU,oui
YASA BONGA,KITOY,KISALA,17.77698,-4.402040005,512,VILLAGE,KWILU,oui
YASA BONGA,KITOY,KITOY CENTRE,17.81803,-4.404099941,6073,CSR,KWILU,oui
YASA BONGA,KITOY,KITOY VILLAGE,17.84054,-4.39124012,615,VILLAGE,KWILU,oui
YASA BONGA,KITOY,MALELA,17.84107,-4.330570221,898,VILLAGE,KWILU,oui
YASA BONGA,KITOY,MISIMBIDI,17.80654,-4.372779846,645,VILLAGE,KWILU,oui
YASA BONGA,KITOY,Muntu,17.88877,-4.395939827,,VILLAGE,KWILU,oui
YASA BONGA,KITOY,MOSANGO,17.85189,-4.342420101,390,VILLAGE,KWILU,oui
YASA BONGA,KITOY,Pombo III,17.80744,-4.442329884,,VILLAGE,KWILU,oui
YASA BONGA,KWAYA,BWATUNDU,18.12387,-4.458250046,1287,PS,KWILU,oui
YASA BONGA,KWAYA,Camp Kimbanguiste Kimbushi,18.09466,-4.45472002,,VILLAGE,KWILU,oui
YASA BONGA,KWAYA,Camp St Michel,18.04734,-4.467760086,,VILLAGE,KWILU,oui
YASA BONGA,KWAYA,DIMBI,18.12575,-4.439970016,1874,VILLAGE,KWILU,oui
YASA BONGA,KWAYA,Ferme Bwaniangi,18.11648,-4.443109989,,FERME,KWILU,oui
YASA BONGA,KWAYA,Ferme Fede,18.05724,-4.479519844,,FERME,KWILU,oui
YASA BONGA,KWAYA,Ferme Kalunda,18.14535,-4.4759202,,FERME,KWILU,oui
YASA BONGA,KWAYA,Ferme Kibolo Kimanza,18.14167,-4.473700047,,FERME,KWILU,oui
YASA BONGA,KWAYA,Ferme Kimbushi II,18.10451,-4.461400032,,FERME,KWILU,oui
YASA BONGA,KWAYA,Ferme Makengo,18.05985,-4.504119873,,FERME,KWILU,oui
YASA BONGA,KWAYA,Ferme Manzombi,18.13861,-4.473599911,,FERME,KWILU,oui
YASA BONGA,KWAYA,Ferme Masuku,18.03206,-4.437119961,,FERME,KWILU,oui
YASA BONGA,KWAYA,Ferme Musesi,18.08371,-4.461160183,,FERME,KWILU,oui
YASA BONGA,KWAYA,Ferme Mutambula,18.05382,-4.43061018,,FERME,KWILU,oui
YASA BONGA,KWAYA,Ferme Ngwadi,18.09695,-4.483009815,,FERME,KWILU,oui
YASA BONGA,KWAYA,Ferme Shimu,18.05491,-4.4333601,,FERME,KWILU,oui
YASA BONGA,KWAYA,KIANGA,18.0303,-4.457019806,475,VILLAGE,KWILU,oui
YASA BONGA,KWAYA,Kibalula,18.10599,-4.50316,,VILLAGE,KWILU,oui
YASA BONGA,KWAYA,KIMBUSHI,18.09812,-4.449530125,1391,VILLAGE,KWILU,oui
YASA BONGA,KWAYA,Kimbushi II,18.10766,-4.461790085,,VILLAGE,KWILU,oui
YASA BONGA,KWAYA,KINIATI,18.03881,-4.46999979,140,VILLAGE,KWILU,oui
YASA BONGA,KWAYA,KIZIA II,18.03683,-4.427639961,186,VILLAGE,KWILU,oui
YASA BONGA,KWAYA,Kraal Soeur De Charite,18.06161,-4.479070187,,VILLAGE,KWILU,oui
YASA BONGA,KWAYA,KWAYA VILLAGE,18.06123,-4.516759872,419,VILLAGE,KWILU,oui
YASA BONGA,KWAYA,KWAYA SECTEUR,18.07913,-4.496510029,1785,CS,KWILU,oui
YASA BONGA,KWAYA,LOMBO CENTRE,18.05632,-4.465380192,480,VILLAGE,KWILU,oui
YASA BONGA,KWAYA,LOMBO KIMBANGUISTE,18.05174,-4.455009937,127,VILLAGE,KWILU,oui
YASA BONGA,KWAYA,LOMBO VILLAGE,18.06056,-4.469190121,600,VILLAGE,KWILU,oui
YASA BONGA,KWAYA,LUNDA,18.06687,-4.479489803,538,VILLAGE,KWILU,oui
YASA BONGA,KWAYA,Mazuni,18.08518,-4.485280037,,VILLAGE,KWILU,oui
YASA BONGA,KWAYA,MIPELENGE,18.11898,-4.503479958,905,VILLAGE,KWILU,oui
YASA BONGA,KWAYA,MUKALA,18.09551,-4.514560223,308,VILLAGE,KWILU,oui
YASA BONGA,KWAYA,MUSEKEDI,18.06728,-4.500710011,142,VILLAGE,KWILU,oui
YASA BONGA,KWAYA,NGULUMUSITU,18.04981,-4.445940018,998,PS,KWILU,oui
YASA BONGA,KWAYA,Ngulumusitu Etat,18.03938,-4.434249878,,VILLAGE,KWILU,oui
YASA BONGA,KWAYA,TATU,18.10005,-4.494530201,635,VILLAGE,KWILU,oui
YASA BONGA,LULAU,BA LULAU,17.90292,-4.294169903,865,CS,KWILU,oui
YASA BONGA,LULAU,Benda Bika (Ferme Kamba I),17.92386,-4.317150116,,FERME,KWILU,oui
YASA BONGA,LULAU,Benda Bika (Ferme Kamba II),17.92278,-4.313000202,,FERME,KWILU,oui
YASA BONGA,LULAU,BULANGUNGA,17.90873,-4.274970055,406,VILLAGE,KWILU,oui
YASA BONGA,LULAU,Ferme Kakono,17.91896,-4.346539974,,FERME,KWILU,oui
YASA BONGA,LULAU,Ferme Kapalay,17.9004,-4.320660114,,FERME,KWILU,oui
YASA BONGA,LULAU,Ferme Kayanda,17.91764,-4.245009899,,FERME,KWILU,oui
YASA BONGA,LULAU,Ferme Kazamba,17.89429,-4.277080059,,FERME,KWILU,oui
YASA BONGA,LULAU,Ferme Kibalula,17.88102,-4.276899815,,FERME,KWILU,oui
YASA BONGA,LULAU,Ferme Mavanga,17.90316,-4.355010033,,FERME,KWILU,oui
YASA BONGA,LULAU,Ferme Musenge,17.90306,-4.23555994,,FERME,KWILU,oui
YASA BONGA,LULAU,Ferme Musenge Bondo,17.90141,-4.232910156,,FERME,KWILU,oui
YASA BONGA,LULAU,Ferme Nioka,17.8924,-4.252190113,,FERME,KWILU,oui
YASA BONGA,LULAU,KIMBI,17.93277,-4.235519886,838,VILLAGE,KWILU,oui
YASA BONGA,LULAU,KIMPUTU,17.90266,-4.372449875,624,VILLAGE,KWILU,oui
YASA BONGA,LULAU,KIMWANZA BOMA,17.87857,-4.372350216,509,VILLAGE,KWILU,oui
YASA BONGA,LULAU,Kimwanza Boma Poste,17.87206,-4.367169857,,PS,KWILU,oui
YASA BONGA,LULAU,KIMWANZA TWALA,17.90667,-4.349599838,770,VILLAGE,KWILU,oui
YASA BONGA,LULAU,KINKWE I,17.86903,-4.353839874,249,VILLAGE,KWILU,oui
YASA BONGA,LULAU,KINKWE II,17.88081,-4.333640099,262,VILLAGE,KWILU,oui
YASA BONGA,LULAU,BRAZZA,17.93213,-4.316989899,371,VILLAGE,KWILU,oui
YASA BONGA,LULAU,LULAU VILLAGE,17.9158,-4.298830032,1343,VILLAGE,KWILU,oui
YASA BONGA,LULAU,Mbende II,17.88194,-4.265649796,,VILLAGE,KWILU,oui
YASA BONGA,LULAU,MBENDE POSTE,17.88486,-4.319069862,324,VILLAGE,KWILU,oui
YASA BONGA,LULAU,MBENDE VILLAGE,17.87169,-4.309659958,1206,VILLAGE,KWILU,oui
YASA BONGA,LULAU,MISELE,17.89589,-4.318699837,338,VILLAGE,KWILU,oui
YASA BONGA,LULAU,MUBE,17.85316,-4.286039829,83,VILLAGE,KWILU,oui
YASA BONGA,LULAU,MUSENGE,17.91271,-4.253479958,397,VILLAGE,KWILU,oui
YASA BONGA,LULAU,NGIELE,17.86547,-4.272429943,155,VILLAGE,KWILU,oui
YASA BONGA,LUWANGA,BUSEKE,18.16216,-4.526110172,511,VILLAGE,KWILU,oui
YASA BONGA,LUWANGA,Ferme Bon Coin,18.17611111,-4.564027779,,FERME,KWILU,oui
YASA BONGA,LUWANGA,Ferme Kabeya,18.14285,-4.539730072,,FERME,KWILU,oui
YASA BONGA,LUWANGA,Ferme Kinzuku,18.15683,-4.556690216,,FERME,KWILU,oui
YASA BONGA,LUWANGA,Ferme Luboma/Ferme Mayombo,18.16371,-4.528399944,,FERME,KWILU,oui
YASA BONGA,LUWANGA,Ferme Luwanga,18.15141,-4.533490181,,FERME,KWILU,oui
YASA BONGA,LUWANGA,Ferme Mbunzi I,18.16879,-4.525929928,,FERME,KWILU,oui
YASA BONGA,LUWANGA,Ferme Mbunzi II,18.17001,-4.540400028,,FERME,KWILU,oui
YASA BONGA,LUWANGA,Ferme Minie,18.16267,-4.50578022,,FERME,KWILU,oui
YASA BONGA,LUWANGA,Ferme Minkumu II,18.16421,-4.532660007,,FERME,KWILU,oui
YASA BONGA,LUWANGA,Ferme Miwala,18.16376,-4.519649982,,FERME,KWILU,oui
YASA BONGA,LUWANGA,Ferme Mubanfu/Ferme Mukadi,18.17434,-4.559179783,,FERME,KWILU,oui
YASA BONGA,LUWANGA,Ferme Mububulu,18.15945,-4.561460018,,FERME,KWILU,oui
YASA BONGA,LUWANGA,Ferme Mungalu,18.15468,-4.565969944,,FERME,KWILU,oui
YASA BONGA,LUWANGA,Gwado,18.16659722,-4.547430557,,VILLAGE,KWILU,oui
YASA BONGA,LUWANGA,KANZA,18.10814,-4.552790165,524,PS,KWILU,oui
YASA BONGA,LUWANGA,Kanza Centre Commercial,18.10401,-4.54652977,,VILLAGE,KWILU,oui
YASA BONGA,LUWANGA,Katuta,18.17157,-4.569719791,,VILLAGE,KWILU,oui
YASA BONGA,LUWANGA,KIALU I,18.13465,-4.547550201,298,VILLAGE,KWILU,oui
YASA BONGA,LUWANGA,KIALU II,18.13089,-4.551239967,622,VILLAGE,KWILU,oui
YASA BONGA,LUWANGA,Kialu Basongo (Kialu III),18.12791,-4.555659771,,VILLAGE,KWILU,oui
YASA BONGA,LUWANGA,KIKONZI,18.09833333,-4.529652779,724,VILLAGE,KWILU,oui
YASA BONGA,LUWANGA,KILUNDA II,18.16416,-4.556359768,852,PS,KWILU,oui
YASA BONGA,LUWANGA,KILUNDA I,18.15088,-4.559370041,508,VILLAGE,KWILU,oui
YASA BONGA,LUWANGA,KIMBUMBA,18.13272,-4.527180195,845,VILLAGE,KWILU,oui
YASA BONGA,LUWANGA,LUWANGA,18.15471,-4.529580116,499,CS,KWILU,oui
YASA BONGA,LUWANGA,MBANZIAL,18.16602,-4.516029835,78,VILLAGE,KWILU,oui
YASA BONGA,LUWANGA,MBASAMBA,18.16008,-4.493100166,862,VILLAGE,KWILU,oui
YASA BONGA,LUWANGA,Mundanda,18.17306,-4.566410065,,VILLAGE,KWILU,oui
YASA BONGA,LUWANGA,Musa,18.15103,-4.568379879,,VILLAGE,KWILU,oui
YASA BONGA,LUWANGA,ZANGA,18.1216,-4.534850121,687,VILLAGE,KWILU,oui
YASA BONGA,MANDONDO,BITI,17.84345,-4.650760174,306,VILLAGE,KWILU,oui
YASA BONGA,MANDONDO,BONGA KAPUKA,17.805625,-4.564166667,955,VILLAGE,KWILU,oui
YASA BONGA,MANDONDO,Camp Dondo,17.88365,-4.608620167,,VILLAGE,KWILU,oui
YASA BONGA,MANDONDO,DONDO HPK,17.8798,-4.609590054,1094,VILLAGE,KWILU,oui
YASA BONGA,MANDONDO,Ferme Kimputu,17.84596,-4.633080006,,FERME,KWILU,oui
YASA BONGA,MANDONDO,Ferme Masenga,17.84336,-4.637849808,,FERME,KWILU,oui
YASA BONGA,MANDONDO,KAZAMBA,17.80839,-4.625609875,94,VILLAGE,KWILU,oui
YASA BONGA,MANDONDO,Kikalakamba,17.80652,-4.63864994,,VILLAGE,KWILU,oui
YASA BONGA,MANDONDO,KIMBATA I,17.75534,-4.606130123,392,VILLAGE,KWILU,oui
YASA BONGA,MANDONDO,KIMBATA II,17.76295,-4.616320133,67,VILLAGE,KWILU,oui
YASA BONGA,MANDONDO,KINGOMA LAKU,17.84809,-4.655789852,722,VILLAGE,KWILU,oui
YASA BONGA,MANDONDO,KINGWANZA,17.7573,-4.625390053,323,VILLAGE,KWILU,oui
YASA BONGA,MANDONDO,KIVAMVA,17.80987,-4.610519886,185,VILLAGE,KWILU,oui
YASA BONGA,MANDONDO,MAKALA,17.8553,-4.628640175,858,VILLAGE,KWILU,oui
YASA BONGA,MANDONDO,MANDONDO,17.85141612,-4.605750311,2207,CS,KWILU,oui
YASA BONGA,MANDONDO,MUHETA,17.8403,-4.653309822,278,VILLAGE,KWILU,oui
YASA BONGA,MANDONDO,MIYANZI II,17.79797,-4.626379967,277,VILLAGE,KWILU,oui
YASA BONGA,MANDONDO,MIYANZI I,17.78292,-4.6177001,484,VILLAGE,KWILU,oui
YASA BONGA,MANDONDO,MUKANGU,17.82162,-4.654640198,165,VILLAGE,KWILU,oui
YASA BONGA,MANDONDO,SAKA CENTRE,17.80852454,-4.605790353,1143,PS,KWILU,oui
YASA BONGA,MANDONDO,SAKA VILLAGE,17.82909,-4.611849785,258,VILLAGE,KWILU,oui
YASA BONGA,MBANZA GOBARI,Camp Bac,18.12575,-4.374690056,,VILLAGE,KWILU,oui
YASA BONGA,MBANZA GOBARI,Ferme Bilengi/Ferme Mibwanbunu,18.11048,-4.298069954,,FERME,KWILU,oui
YASA BONGA,MBANZA GOBARI,Ferme Busitap/Ferme Mboko Kisangi,18.10907,-4.303770065,,FERME,KWILU,oui
YASA BONGA,MBANZA GOBARI,Ferme Bwabukula/Ferme Misembu,18.10473,-4.312119961,,FERME,KWILU,oui
YASA BONGA,MBANZA GOBARI,Ferme Darmus,18.09342,-4.372280121,,FERME,KWILU,oui
YASA BONGA,MBANZA GOBARI,Ferme Kikiama Zolana,18.09424,-4.443019867,,FERME,KWILU,oui
YASA BONGA,MBANZA GOBARI,Ferme Kitubu,18.12017,-4.36992979,,FERME,KWILU,oui
YASA BONGA,MBANZA GOBARI,Ferme Mabeti,18.0812,-4.332829952,,FERME,KWILU,oui
YASA BONGA,MBANZA GOBARI,Ferme Malela/Ferme Munbungu,18.08925,-4.319509983,,FERME,KWILU,oui
YASA BONGA,MBANZA GOBARI,Ferme Mont Ngaliema/Ferme Bakwanga,18.09791,-4.322289944,,FERME,KWILU,oui
YASA BONGA,MBANZA GOBARI,Ferme Nkobatwa,18.12027778,-4.393333335,,FERME,KWILU,oui
YASA BONGA,MBANZA GOBARI,Ferme Nto Lukala,18.11892,-4.411870003,,FERME,KWILU,oui
YASA BONGA,MBANZA GOBARI,KABALA,18.08279,-4.327000141,173,VILLAGE,KWILU,oui
YASA BONGA,MBANZA GOBARI,KAMBUMBA,18.12855,-4.428080082,983,PS,KWILU,oui
YASA BONGA,MBANZA GOBARI,KIMOLO,18.10192,-4.317510128,3871,PS,KWILU,oui
YASA BONGA,MBANZA GOBARI,KINGONGO,18.07885,-4.43434,563,VILLAGE,KWILU,oui
YASA BONGA,MBANZA GOBARI,KITUMBA,18.07699021,-4.418485308,1072,VILLAGE,KWILU,oui
YASA BONGA,MBANZA GOBARI,LUKALA,18.12225,-4.405340195,599,VILLAGE,KWILU,oui
YASA BONGA,MBANZA GOBARI,Mayenga,18.08864,-4.439139843,,VILLAGE,KWILU,oui
YASA BONGA,MBANZA GOBARI,MBANZA DIMBI,18.11242,-4.415939808,1508,VILLAGE,KWILU,oui
YASA BONGA,MBANZA GOBARI,MBANZA GOBARI,18.10709,-4.378900051,501,CS,KWILU,oui
YASA BONGA,MBANZA GOBARI,Mbanza Kingoma,18.08275,-4.341629982,,VILLAGE,KWILU,oui
YASA BONGA,MBANZA GOBARI,PINZI,18.08814,-4.360099792,1961,VILLAGE,KWILU,oui
YASA BONGA,MBANZA GOBARI,TALANGAY,18.10888,-4.369589806,583,VILLAGE,KWILU,oui
YASA BONGA,MBANZA GOBARI,SAMBA NSEKE,18.11465,-4.390940189,575,VILLAGE,KWILU,oui
YASA BONGA,MBANZA MFUMU NKENTO,Camp Kimbanguiste Zunganisa/Ferme Sengi,17.89804,-4.68380022,,VILLAGE,KWILU,oui
YASA BONGA,MBANZA MFUMU NKENTO,FERME KIPATA,17.90236,-4.714479923,93,FERME,KWILU,oui
YASA BONGA,MBANZA MFUMU NKENTO,Ferme Mbukulu,17.86611,-4.688429832,,FERME,KWILU,oui
YASA BONGA,MBANZA MFUMU NKENTO,KIMBANGI,17.89166,-4.687429905,2055,VILLAGE,KWILU,oui
YASA BONGA,MBANZA MFUMU NKENTO,KINGOMBE II,17.88576,-4.707290173,698,VILLAGE,KWILU,oui
YASA BONGA,MBANZA MFUMU NKENTO,KINGOMBE VILLAGE,17.88712,-4.697340012,165,VILLAGE,KWILU,oui
YASA BONGA,MBANZA MFUMU NKENTO,KIWAWA II,17.94174,-4.697899818,592,VILLAGE,KWILU,oui
YASA BONGA,MBANZA MFUMU NKENTO,KIWAWA I,17.91164,-4.699240208,798,VILLAGE,KWILU,oui
YASA BONGA,MBANZA MFUMU NKENTO,MATAMAPITA,17.94715,-4.746490002,546,VILLAGE,KWILU,oui
YASA BONGA,MBANZA MFUMU NKENTO,MBANZA,17.95343,-4.717700005,2593,CS,KWILU,oui
YASA BONGA,MBANZA MFUMU NKENTO,MIKAMBU,17.96087,-4.757460117,775,VILLAGE,KWILU,oui
YASA BONGA,MBANZA MFUMU NKENTO,MIMBONDO,17.90001,-4.681499958,551,PS,KWILU,oui
YASA BONGA,MBANZA WAMBA,BONDO MUBIE,17.8763,-4.457960129,432,PS,KWILU,oui
YASA BONGA,MBANZA WAMBA,BUMBA KINZUKU,17.85315,-4.468689919,1201,VILLAGE,KWILU,oui
YASA BONGA,MBANZA WAMBA,BUYULU,17.90091192,-4.405492099,383,VILLAGE,KWILU,oui
YASA BONGA,MBANZA WAMBA,Camp Musenge,17.92124,-4.486710072,,VILLAGE,KWILU,oui
YASA BONGA,MBANZA WAMBA,Ferme Bondo,17.89512,-4.46517992,,FERME,KWILU,oui
YASA BONGA,MBANZA WAMBA,Ferme Dany,17.90141,-4.407470226,,FERME,KWILU,oui
YASA BONGA,MBANZA WAMBA,Ferme Kayandab,17.8912,-4.456940174,,FERME,KWILU,oui
YASA BONGA,MBANZA WAMBA,Ferme Kimbangi Musengi,17.9588,-4.494810104,,FERME,KWILU,oui
YASA BONGA,MBANZA WAMBA,Ferme Kingombe,17.87488,-4.440430164,,FERME,KWILU,oui
YASA BONGA,MBANZA WAMBA,Ferme Kisieta,17.87427,-4.445300102,,FERME,KWILU,oui
YASA BONGA,MBANZA WAMBA,Ferme Makombu,17.86838,-4.483409882,,FERME,KWILU,oui
YASA BONGA,MBANZA WAMBA,Ferme Mapanda Nzila,17.84861,-4.462299824,,FERME,KWILU,oui
YASA BONGA,MBANZA WAMBA,Ferme Mbambi Manana,17.90844,-4.422150135,,FERME,KWILU,oui
YASA BONGA,MBANZA WAMBA,Ferme Mwela Fils,17.87399,-4.447750092,,FERME,KWILU,oui
YASA BONGA,MBANZA WAMBA,Kibingu Magasin,17.87597,-4.437709808,,VILLAGE,KWILU,oui
YASA BONGA,MBANZA WAMBA,KIBINGU,17.88065,-4.434869766,176,VILLAGE,KWILU,oui
YASA BONGA,MBANZA WAMBA,KIMPOKO,17.90744,-4.485380173,179,VILLAGE,KWILU,oui
YASA BONGA,MBANZA WAMBA,Kimwilu Camp Boutique,17.89414,-4.458179951,,VILLAGE,KWILU,oui
YASA BONGA,MBANZA WAMBA,KIMWILU,17.89894,-4.456870079,286,VILLAGE,KWILU,oui
YASA BONGA,MBANZA WAMBA,KINKESA,17.87471,-4.453400135,269,VILLAGE,KWILU,oui
YASA BONGA,MBANZA WAMBA,Kinkesa II,17.88243055,-4.453819446,,VILLAGE,KWILU,oui
YASA BONGA,MBANZA WAMBA,KWAYA,17.91071,-4.484839916,141,VILLAGE,KWILU,oui
YASA BONGA,MBANZA WAMBA,MAKUKU,17.89367,-4.426700115,249,VILLAGE,KWILU,oui
YASA BONGA,MBANZA WAMBA,Matundu,17.87363,-4.458960056,,VILLAGE,KWILU,oui
YASA BONGA,MBANZA WAMBA,MBAMBI MANANA,17.91619,-4.422450066,1709,VILLAGE,KWILU,oui
YASA BONGA,MBANZA WAMBA,MBAMBI VUNDA,17.92112,-4.448470116,424,VILLAGE,KWILU,oui
YASA BONGA,MBANZA WAMBA,MBANGI,17.92587,-4.449210167,753,VILLAGE,KWILU,oui
YASA BONGA,MBANZA WAMBA,MBANZA WAMBA,17.92951,-4.451000214,1019,CS,KWILU,oui
YASA BONGA,MBANZA WAMBA,MUKEFU,17.86562,-4.466259956,157,VILLAGE,KWILU,oui
YASA BONGA,MBANZA WAMBA,MUSENGE KANDONDI,17.94148,-4.483439922,1290,PS,KWILU,oui
YASA BONGA,MBANZA WAMBA,MUSENGE KIMBANDA,17.93786379,-4.500843496,233,VILLAGE,KWILU,oui
YASA BONGA,MUKENGI,Beach Mansanga Nsang,18.10496,-4.625110149,,VILLAGE,KWILU,oui
YASA BONGA,MUKENGI,Ferme Kingamba,18.16279,-4.624969959,,FERME,KWILU,oui
YASA BONGA,MUKENGI,Ferme Kisala,18.14039,-4.620359898,,FERME,KWILU,oui
YASA BONGA,MUKENGI,Ferme Kisangani,18.11519,-4.643290043,,FERME,KWILU,oui
YASA BONGA,MUKENGI,Ferme Madiumba,18.11517,-4.606780052,,FERME,KWILU,oui
YASA BONGA,MUKENGI,Ferme Masanga Sanga,18.0887,-4.634769917,,FERME,KWILU,oui
YASA BONGA,MUKENGI,KAZAMBA,18.10899,-4.578889847,298,VILLAGE,KWILU,oui
YASA BONGA,MUKENGI,MANZOMBI,18.15338,-4.618229866,949,VILLAGE,KWILU,oui
YASA BONGA,MUKENGI,Manzombi II,18.15244,-4.634029865,,VILLAGE,KWILU,oui
YASA BONGA,MUKENGI,MATUNDU I,18.10181,-4.60668993,463,VILLAGE,KWILU,oui
YASA BONGA,MUKENGI,MATUNDU II,18.09913,-4.628809929,168,VILLAGE,KWILU,oui
YASA BONGA,MUKENGI,MIBISI,18.15211,-4.583509922,1162,VILLAGE,KWILU,oui
YASA BONGA,MUKENGI,MUKENGI,18.13904,-4.592060089,907,VILLAGE,KWILU,oui
YASA BONGA,MUKENGI,MUKENGI POSTE,18.11519,-4.604109764,536,CS,KWILU,oui
YASA BONGA,PELO KUMBI,Ferme Kimgulu,17.77619,-4.639410019,,FERME,KWILU,oui
YASA BONGA,PELO KUMBI,Ferme Munzanga,17.78929,-4.689310074,,FERME,KWILU,oui
YASA BONGA,PELO KUMBI,KINGONDI,17.8357,-4.676119804,867,VILLAGE,KWILU,oui
YASA BONGA,PELO KUMBI,Kingondi Muzengo / Kingondi Mamboma,17.80451,-4.671760082,,PS,KWILU,oui
YASA BONGA,PELO KUMBI,Kingondi Nzombi/Ferme Mukangu,17.83875,-4.677010059,,VILLAGE,KWILU,oui
YASA BONGA,PELO KUMBI,KINZAMBA KIPATA,17.75848,-4.651949883,1017,VILLAGE,KWILU,oui
YASA BONGA,PELO KUMBI,KINZAMBA SUPU,17.78626587,-4.650040644,530,VILLAGE,KWILU,oui
YASA BONGA,PELO KUMBI,Kinzinda,17.74765,-4.640029907,,VILLAGE,KWILU,oui
YASA BONGA,PELO KUMBI,KIPALANGA II,17.741875,-4.692986112,241,VILLAGE,KWILU,oui
YASA BONGA,PELO KUMBI,KIPALANGA I,17.73933,-4.667910099,1966,VILLAGE,KWILU,oui
YASA BONGA,PELO KUMBI,Kipalanga Kimbembo,17.74526,-4.671279907,,VILLAGE,KWILU,oui
YASA BONGA,PELO KUMBI,Manu Manzambi,17.8001,-4.684500217,,VILLAGE,KWILU,oui
YASA BONGA,PELO KUMBI,MUBIAKI,17.74513,-4.636199951,1140,VILLAGE,KWILU,oui
YASA BONGA,PELO KUMBI,MUNZANGA,17.80187,-4.682509899,547,VILLAGE,KWILU,oui
YASA BONGA,PELO KUMBI,Pelo Badu/Pelo Mumvunga,17.78739,-4.7270298,,VILLAGE,KWILU,oui
YASA BONGA,PELO KUMBI,PELO KINDUNDU,17.78965,-4.716090202,895,VILLAGE,KWILU,oui
YASA BONGA,PELO KUMBI,PELO KUMBI,17.76613274,-4.694427487,913,CS,KWILU,oui
YASA BONGA,YASA,BONGA VILLAGE,17.99641,-4.526770115,407,HGR,KWILU,oui
YASA BONGA,YASA,Bonga Mapela,17.99699,-4.520030022,,VILLAGE,KWILU,oui
YASA BONGA,YASA,Bwalayulu Centre,17.98237,-4.522240162,,VILLAGE,KWILU,oui
YASA BONGA,YASA,BWALAYULU VILLAGE,17.98006,-4.51887989,464,VILLAGE,KWILU,oui
YASA BONGA,YASA,Camp Wenze,17.93495,-4.528289795,,VILLAGE,KWILU,oui
YASA BONGA,YASA,Ferme Binga,17.99012,-4.463580132,,FERME,KWILU,oui
YASA BONGA,YASA,Ferme Kibwalu,18.02438,-4.561729908,,FERME,KWILU,oui
YASA BONGA,YASA,Ferme Kipupa,17.97397,-4.492980003,,FERME,KWILU,oui
YASA BONGA,YASA,Ferme Masangi Ngemi,17.97802,-4.527850151,,FERME,KWILU,oui
YASA BONGA,YASA,Ferme Mbanza Kisina,17.99148,-4.458469868,,FERME,KWILU,oui
YASA BONGA,YASA,Ferme Pitshen,17.97355,-4.497610092,,FERME,KWILU,oui
YASA BONGA,YASA,KIBOKO,18.0415,-4.532770157,922,VILLAGE,KWILU,oui
YASA BONGA,YASA,KILUENGE,17.96959,-4.52933979,283,VILLAGE,KWILU,oui
YASA BONGA,YASA,KIMBILI COPRATEC,17.93983,-4.523049831,622,VILLAGE,KWILU,oui
YASA BONGA,YASA,KIMBILI VILLAGE,17.95824,-4.530519962,529,VILLAGE,KWILU,oui
YASA BONGA,YASA,KINA BAMBA,18.01109,-4.525710106,700,VILLAGE,KWILU,oui
YASA BONGA,YASA,KINA MILUNDU,18.02768,-4.481900215,559,VILLAGE,KWILU,oui
YASA BONGA,YASA,KINZAMBA,17.99593,-4.51541996,332,VILLAGE,KWILU,oui
YASA BONGA,YASA,KISOMBO,17.99687,-4.532869816,339,VILLAGE,KWILU,oui
YASA BONGA,YASA,KIYAMBA,18.02692,-4.539859772,223,VILLAGE,KWILU,oui
YASA BONGA,YASA,MABETI,17.9679,-4.528130054,718,VILLAGE,KWILU,oui
YASA BONGA,YASA,MATAMBA,18.023,-4.532159805,213,VILLAGE,KWILU,oui
YASA BONGA,YASA,MBANZA MULUMA,18.02382,-4.54433012,1029,VILLAGE,KWILU,oui
YASA BONGA,YASA,MBANZA NGANDA,18.00839,-4.481379986,672,VILLAGE,KWILU,oui
YASA BONGA,YASA,MIKULA,18.03775,-4.524209976,905,VILLAGE,KWILU,oui
YASA BONGA,YASA,MUKENGI,18.01544,-4.527910233,858,VILLAGE,KWILU,oui
YASA BONGA,YASA,MUKOKO YASA,17.98579,-4.455589771,1060,VILLAGE,KWILU,oui
YASA BONGA,YASA,MUSENGE,18.02563,-4.545410156,555,VILLAGE,KWILU,oui
YASA BONGA,YASA,NGWAMBE,17.98927,-4.48416996,869,VILLAGE,KWILU,oui
YASA BONGA,YASA,YASA MISSION,17.97234,-4.508490086,470,CS,KWILU,oui
YASA BONGA,YASA,ZANGA MFINDA,17.97903,-4.536159992,564,VILLAGE,KWILU,oui
YASA BONGA,BILILI,MUWANZALA,18.08105704,-4.216535782,1181,VILLAGE,KWILU,oui
YASA BONGA,KIAMFU,KIAMFU LULAU,18.00111111,-4.356250002,480,VILLAGE,KWILU,oui
YASA BONGA,KIMBWAYAMU,KAZAMBA POSTE,17.84611111,-4.551319446,293,VILLAGE,KWILU,oui
YASA BONGA,KINA KABOBA,KIMBAMBI,17.75090278,-4.606111112,314,VILLAGE,KWILU,oui
MOSANGO,KASAY,Ferme Kiniangi,18.32437,-4.98980999,,FERME,KWILU,oui
MOSANGO,KASAY,Pont Riviere Gobari,18.28679,-4.884140015,,REPERE GEOGRAPHIQUE,KWILU,oui
MOSANGO,KASAY,Riviere Gobari,18.31481,-4.960720062,,REPERE GEOGRAPHIQUE,KWILU,oui
MOSANGO,KASAY,Riviere Gobari,18.32737,-4.988999844,,REPERE GEOGRAPHIQUE,KWILU,oui
MOSANGO,KASAY,Riviere Kindeki,18.33066,-4.987589836,,REPERE GEOGRAPHIQUE,KWILU,oui
MOSANGO,KINZAMBA I,Camp Boyokani,18.21549,-5.061460018,,VILLAGE,KWILU,oui
MOSANGO,KINZAMBA I,Camp Mutanunu,18.21067,-4.996079922,,VILLAGE,KWILU,oui
MOSANGO,KINZAMBA I,Camp Mutelu,18.22223,-5.069320202,,VILLAGE,KWILU,oui
MOSANGO,KINZAMBA I,Ferme Balulantima,18.29436,-4.983359814,,FERME,KWILU,oui
MOSANGO,KINZAMBA I,Ferme Gunzi,18.20395,-5.080639839,,FERME,KWILU,oui
MOSANGO,KINZAMBA I,Ferme Kamatundu,18.21515,-5.084690094,,FERME,KWILU,oui
MOSANGO,KINZAMBA I,Ferme Kapemba,18.27482,-4.985990047,,FERME,KWILU,oui
MOSANGO,KINZAMBA I,Ferme Kifundjika,18.24945,-5.125239849,,FERME,KWILU,oui
MOSANGO,KINZAMBA I,Ferme Kikongo,18.24417,-5.115880013,,FERME,KWILU,oui
MOSANGO,KINZAMBA I,Ferme Kimvuka,18.18087,-5.074950218,,FERME,KWILU,oui
MOSANGO,KINZAMBA I,Ferme Kingulu,18.17805,-5.06953001,,FERME,KWILU,oui
MOSANGO,KINZAMBA I,Ferme Konzu,18.17011,-5.042580128,,FERME,KWILU,oui
MOSANGO,KINZAMBA I,Ferme Lusilu,18.19703,-5.07641983,,FERME,KWILU,oui
MOSANGO,KINZAMBA I,Ferme Mawete/Ferme Kafela,18.26907,-5.057169914,,FERME,KWILU,oui
MOSANGO,KINZAMBA I,Ferme Mayombu,18.17787,-5.036680222,,FERME,KWILU,oui
MOSANGO,KINZAMBA I,Ferme Mosango II,18.26315,-4.989359856,,FERME,KWILU,oui
MOSANGO,KINZAMBA I,Ferme Pilipili,18.25589,-4.983970165,,FERME,KWILU,oui
MOSANGO,KINZAMBA I,Ferme Sakivuvu,18.22168,-5.099020004,,FERME,KWILU,oui
MOSANGO,KINZAMBA I,Ferme Soniziowu,18.21143,-5.088719845,,FERME,KWILU,oui
MOSANGO,KINZAMBA I,Ferme Vandakingulu,18.18728,-5.074269772,,FERME,KWILU,oui
MOSANGO,KINZAMBA I,Gobari IV,18.29024,-5.130010128,,VILLAGE,KWILU,oui
MOSANGO,KINZAMBA I,Kisombu II,18.17982,-5.030039787,,VILLAGE,KWILU,oui
MOSANGO,KINZAMBA I,Riviere Gobari,18.32834,-5.119989872,,REPERE GEOGRAPHIQUE,KWILU,oui
MOSANGO,KINZAMBA I,Riviere Kumbi,18.18068,-5.032159805,,REPERE GEOGRAPHIQUE,KWILU,oui
MOSANGO,KINZAMBA I,Riviere Mambubi,18.29491,-5.129380226,,REPERE GEOGRAPHIQUE,KWILU,oui
MOSANGO,KINZAMBA I,Riviere Mihunzi,18.28255,-5.05024004,,REPERE GEOGRAPHIQUE,KWILU,oui
MOSANGO,KINZAMBA I,Riviere Mosango III,18.2728,-4.980510235,,REPERE GEOGRAPHIQUE,KWILU,oui
MOSANGO,KINZAMBA I,Riviere Simba,18.21419,-5.086750031,,REPERE GEOGRAPHIQUE,KWILU,oui
MOSANGO,KINZAMBA I,Riviere Simba I,18.18183,-5.073750019,,REPERE GEOGRAPHIQUE,KWILU,oui
MOSANGO,KINZAMBA II,Ferme Kikweta,17.99549303,-5.104961615,,FERME,KWILU,oui
MOSANGO,KINZAMBA II,Ferme Mabongo/Ferme Gigusa (Kindala),17.98977,-5.09044981,,FERME,KWILU,oui
MOSANGO,KINZAMBA II,Ferme Mimbondo,17.98961,-5.129350185,,FERME,KWILU,oui
MOSANGO,KINZAMBA II,Kilembula,17.99944,-5.083270073,,VILLAGE,KWILU,oui
MOSANGO,KINZAMBA II,Kindala Mayumbu,18.00177,-5.110249996,,VILLAGE,KWILU,oui
MOSANGO,KINZAMBA II,Kivunda II,17.94973,-5.146309853,,VILLAGE,KWILU,oui
MOSANGO,KINZAMBA II,Pont Riviere Kambi,17.95815,-5.138710022,,REPERE GEOGRAPHIQUE,KWILU,oui
MOSANGO,KINZAMBA II,Pont Riviere Luwungu,17.99221,-5.136630058,,REPERE GEOGRAPHIQUE,KWILU,oui
MOSANGO,KINZAMBA II,Pont Riviere Mulela Ngubu,17.99687384,-5.143184561,,REPERE GEOGRAPHIQUE,KWILU,oui
MOSANGO,KINZAMBA II,Pont Riviere Musangu,18.00003,-5.064390182,,REPERE GEOGRAPHIQUE,KWILU,oui
MOSANGO,KINZAMBA II,Pont Riviere Musobo,17.98875,-5.089409828,,REPERE GEOGRAPHIQUE,KWILU,oui
MOSANGO,KINZAMBA II,Pont Riviere Yeye,17.97908,-5.09664011,,REPERE GEOGRAPHIQUE,KWILU,oui
MOSANGO,KINZAMBA II,Pont Riviere Yumbukiela,18.00052,-5.059599876,,REPERE GEOGRAPHIQUE,KWILU,oui
MOSANGO,KINZAMBA II,Pont Ruisseau Kayimbi,18.00055555,-5.030972223,,REPERE GEOGRAPHIQUE,KWILU,oui
MOSANGO,KINZAMBA II,Pont Ruisseau Mbulu,17.93884,-5.161789894,,REPERE GEOGRAPHIQUE,KWILU,oui
MOSANGO,KINZAMBA II,Pont Ruisseau Mikusi,17.99835,-5.047949791,,REPERE GEOGRAPHIQUE,KWILU,oui
MOSANGO,KINZAMBA II,Riviere Buyaya,17.96091,-5.135009766,,REPERE GEOGRAPHIQUE,KWILU,oui
MOSANGO,KINZAMBA II,Riviere Lukula,17.92945,-5.16561985,,REPERE GEOGRAPHIQUE,KWILU,oui
MOSANGO,KINZAMBA II,Ruisseau Dapemba,17.99666667,-5.097777778,,REPERE GEOGRAPHIQUE,KWILU,oui
MOSANGO,KINZAMBA II,Ruisseau Kambongo,17.96659,-5.134250164,,REPERE GEOGRAPHIQUE,KWILU,oui
MOSANGO,KINZAMBA II,Ruisseau Mikanda,17.9626,-5.117660046,,REPERE GEOGRAPHIQUE,KWILU,oui
MOSANGO,KINZAMBA II,Ruisseau Mubwabu,17.94652,-5.154109955,,REPERE GEOGRAPHIQUE,KWILU,oui
MOSANGO,KINZAMBA II,Ruisseau Musangu,18.01638,-5.066380024,,REPERE GEOGRAPHIQUE,KWILU,oui
MOSANGO,KINZAMBA II,Ruisseau Ndanzi,17.99726,-5.121970177,,REPERE GEOGRAPHIQUE,KWILU,oui
MOSANGO,KINZAMBA II,Ruisseau Nzombi,17.9513,-5.142640114,,REPERE GEOGRAPHIQUE,KWILU,oui
MOSANGO,KINZAMBA II,Ruisseau Yeye,18.00175,-5.110239983,,REPERE GEOGRAPHIQUE,KWILU,oui
MOSANGO,KINZAMBA II,Yeye Poste,17.96483,-5.115170002,,VILLAGE,KWILU,oui
MOSANGO,KINZANDA,Camp Cantonnier/Ferme Mala,18.18215,-5.313630104,,VILLAGE,KWILU,oui
MOSANGO,KINZANDA,Ferme Bumba,18.12648,-5.312970161,,FERME,KWILU,oui
MOSANGO,KINZANDA,Ferme Diasa,18.12847,-5.289400101,,FERME,KWILU,oui
MOSANGO,KINZANDA,Ferme Dieu Merci,18.16104,-5.278870106,,FERME,KWILU,oui
MOSANGO,KINZANDA,Ferme Fumu Akutu,18.19319444,-5.202916667,,FERME,KWILU,oui
MOSANGO,KINZANDA,Ferme Israel,18.19256,-5.216310024,,FERME,KWILU,oui
MOSANGO,KINZANDA,Ferme Kafudo Ii,18.08933,-5.353429794,,FERME,KWILU,oui
MOSANGO,KINZANDA,Ferme Kamagogu,18.19263889,-5.205277779,,FERME,KWILU,oui
MOSANGO,KINZANDA,Ferme Kamukadi,18.15106,-5.185200214,,FERME,KWILU,oui
MOSANGO,KINZANDA,Ferme Kanzu,18.09443,-5.373980045,,FERME,KWILU,oui
MOSANGO,KINZANDA,Ferme Kasodi,18.18632,-5.301869869,,FERME,KWILU,oui
MOSANGO,KINZANDA,Ferme Kiaku Kiaku,18.13182,-5.307759762,,FERME,KWILU,oui
MOSANGO,KINZANDA,Ferme Kiala,18.15754,-5.279500008,,FERME,KWILU,oui
MOSANGO,KINZANDA,Ferme Kifulu,18.17262,-5.185239792,,FERME,KWILU,oui
MOSANGO,KINZANDA,Ferme Kimpangi,18.09114,-5.348330021,,FERME,KWILU,oui
MOSANGO,KINZANDA,Ferme Kimwanga,18.08997,-5.395329952,,FERME,KWILU,oui
MOSANGO,KINZANDA,Ferme Kina,18.18783,-5.217949867,,FERME,KWILU,oui
MOSANGO,KINZANDA,Ferme Kinzenzi,18.12719,-5.355690002,,FERME,KWILU,oui
MOSANGO,KINZANDA,Ferme Kipundu,18.11749,-5.321010113,,FERME,KWILU,oui
MOSANGO,KINZANDA,Ferme Kisala,18.10724,-5.358689785,,FERME,KWILU,oui
MOSANGO,KINZANDA,Ferme Kumbi Kakundji,18.18568,-5.273369789,,FERME,KWILU,oui
MOSANGO,KINZANDA,Ferme Luzolo,18.1081,-5.325640202,,FERME,KWILU,oui
MOSANGO,KINZANDA,Ferme Luzolo,18.18466,-5.189320087,,FERME,KWILU,oui
MOSANGO,KINZANDA,Ferme Miheta,18.1127,-5.373859882,,FERME,KWILU,oui
MOSANGO,KINZANDA,Ferme Mipukusu,18.18153,-5.347119808,,FERME,KWILU,oui
MOSANGO,KINZANDA,Ferme Misa,18.13653,-5.28591013,,FERME,KWILU,oui
MOSANGO,KINZANDA,Ferme Mitelu,18.0893,-5.386660099,,FERME,KWILU,oui
MOSANGO,KINZANDA,Ferme Mundonda,18.10122,-5.332369804,,FERME,KWILU,oui
MOSANGO,KINZANDA,Ferme Nakanetisa,18.18322,-5.3354702,,FERME,KWILU,oui
MOSANGO,KINZANDA,Ferme Nkenzu,18.18257,-5.269330025,,FERME,KWILU,oui
MOSANGO,KINZANDA,Ferme Putu,18.18657,-5.18817997,,FERME,KWILU,oui
MOSANGO,KINZANDA,Ferme Sumba Weyi,18.18218,-5.191329956,,FERME,KWILU,oui
MOSANGO,KINZANDA,Ferme Tumba/Ferme Mangundu Ma Mbambi,18.18158,-5.358150005,,FERME,KWILU,oui
MOSANGO,KINZANDA,Ferme Yindula,18.16618,-5.265120029,,FERME,KWILU,oui
MOSANGO,KINZANDA,Ferme Zikateti,18.11279,-5.318190098,,FERME,KWILU,oui
MOSANGO,KINZANDA,Kambu,18.18875,-5.196219921,,VILLAGE,KWILU,oui
MOSANGO,KINZANDA,Kingongo Fioti,18.18035,-5.36206007,,VILLAGE,KWILU,oui
MOSANGO,KINZANDA,Mabansa,18.18014,-5.336209774,,VILLAGE,KWILU,oui
MOSANGO,KINZANDA,Pont Riviere Kafi,18.19298,-5.297309875,,REPERE GEOGRAPHIQUE,KWILU,oui
MOSANGO,KINZANDA,Pont Riviere Kafi,18.20153,-5.209189892,,REPERE GEOGRAPHIQUE,KWILU,oui
MOSANGO,KINZANDA,Pont Riviere Kishi Kisala,18.18923,-5.189229965,,REPERE GEOGRAPHIQUE,KWILU,oui
MOSANGO,KINZANDA,Pont Riviere Mosango,18.13823682,-5.187387635,,REPERE GEOGRAPHIQUE,KWILU,oui
MOSANGO,KINZANDA,Puta Mbumba,18.10372633,-5.369099436,,VILLAGE,KWILU,oui
MOSANGO,KINZANDA,Riviere Kabanzi,18.09735,-5.368040085,,REPERE GEOGRAPHIQUE,KWILU,oui
MOSANGO,KINZANDA,Riviere Kaluhemba,18.19184,-5.222670078,,REPERE GEOGRAPHIQUE,KWILU,oui
MOSANGO,KINZANDA,Riviere Kamaketi,18.10316,-5.3759799,,REPERE GEOGRAPHIQUE,KWILU,oui
MOSANGO,KINZANDA,Riviere Kamingu,18.18537,-5.338260174,,REPERE GEOGRAPHIQUE,KWILU,oui
MOSANGO,KINZANDA,Riviere Kamisindu,18.0964,-5.363049984,,REPERE GEOGRAPHIQUE,KWILU,oui
MOSANGO,KINZANDA,Riviere Kamiwawu,18.18189,-5.263140202,,REPERE GEOGRAPHIQUE,KWILU,oui
MOSANGO,KINZANDA,Riviere Kangadu,18.12119,-5.322720051,,REPERE GEOGRAPHIQUE,KWILU,oui
MOSANGO,KINZANDA,Riviere Kasogu,18.13731197,-5.185743764,,REPERE GEOGRAPHIQUE,KWILU,oui
MOSANGO,KINZANDA,Riviere Kitombe,18.09063,-5.349850178,,REPERE GEOGRAPHIQUE,KWILU,oui
MOSANGO,KINZANDA,Riviere Mazinga,18.09526,-5.358870029,,REPERE GEOGRAPHIQUE,KWILU,oui
MOSANGO,KINZANDA,Riviere Mputa Mbumba,18.14206,-5.288370132,,REPERE GEOGRAPHIQUE,KWILU,oui
MOSANGO,KINZANDA,Riviere Mputa Mbumba,18.17939,-5.266019821,,REPERE GEOGRAPHIQUE,KWILU,oui
MOSANGO,KINZANDA,Riviere Puta Bumba,18.12408,-5.31193018,,REPERE GEOGRAPHIQUE,KWILU,oui
MOSANGO,KINZANDA,Riviere Puta Mbumba,18.09227,-5.392370224,,REPERE GEOGRAPHIQUE,KWILU,oui
MOSANGO,KINZANDA,Riviere Puta Mbumba,18.11061,-5.324309826,,REPERE GEOGRAPHIQUE,KWILU,oui
MOSANGO,KINZENZENGO,Ferme Bwala Yulu,18.0769,-5.29061985,,FERME,KWILU,oui
MOSANGO,KINZENZENGO,Ferme Kabamba,17.9805,-5.225949764,,FERME,KWILU,oui
MOSANGO,KINZENZENGO,Ferme Kangisi I,18.04398,-5.339839935,,FERME,KWILU,oui
MOSANGO,KINZENZENGO,Ferme Kangisi II,18.04573,-5.334959984,,FERME,KWILU,oui
MOSANGO,KINZENZENGO,Ferme Kasai,18.08509,-5.319059849,,FERME,KWILU,oui
MOSANGO,KINZENZENGO,Ferme Katembo,18.04817,-5.328680038,,FERME,KWILU,oui
MOSANGO,KINZENZENGO,Ferme Kibala,18.04557,-5.237959862,,FERME,KWILU,oui
MOSANGO,KINZENZENGO,Ferme Kibunda,17.95529,-5.252679825,,FERME,KWILU,oui
MOSANGO,KINZENZENGO,Ferme Kibunda,18.05078,-5.343080044,,FERME,KWILU,oui
MOSANGO,KINZENZENGO,Ferme Kibwatuba,17.96556,-5.223810196,,FERME,KWILU,oui
MOSANGO,KINZENZENGO,Ferme Kifundika,17.97451389,-5.227291667,,FERME,KWILU,oui
MOSANGO,KINZENZENGO,Ferme Kifundika,18.03025,-5.236249924,,FERME,KWILU,oui
MOSANGO,KINZENZENGO,Ferme Kinzambi,18.04827,-5.266089916,,FERME,KWILU,oui
MOSANGO,KINZENZENGO,Ferme Kinzambi (Kitsay),18.04136,-5.344279766,,FERME,KWILU,oui
MOSANGO,KINZENZENGO,Ferme Kisala Kizaba/Ferme Ndonga,18.0757,-5.320280075,,FERME,KWILU,oui
MOSANGO,KINZENZENGO,Ferme Kivudi,17.9467,-5.276800156,,FERME,KWILU,oui
MOSANGO,KINZENZENGO,Ferme Konda,18.03943,-5.351500034,,FERME,KWILU,oui
MOSANGO,KINZENZENGO,Ferme Lutala,18.0758,-5.298210144,,FERME,KWILU,oui
MOSANGO,KINZENZENGO,Ferme Luzolo,18.04699,-5.237959862,,FERME,KWILU,oui
MOSANGO,KINZENZENGO,Ferme Luzolo,18.04136,-5.292049885,,FERME,KWILU,oui
MOSANGO,KINZENZENGO,Ferme Manunga,18.05049,-5.274400234,,FERME,KWILU,oui
MOSANGO,KINZENZENGO,Ferme Mbanza,18.09195,-5.311800003,,FERME,KWILU,oui
MOSANGO,KINZENZENGO,Ferme Mbulu,18.0156,-5.231649876,,FERME,KWILU,oui
MOSANGO,KINZENZENGO,Ferme Misanga (Mukasa),17.94692,-5.318729877,,FERME,KWILU,oui
MOSANGO,KINZENZENGO,Ferme Mulombo,18.08237,-5.295509815,,FERME,KWILU,oui
MOSANGO,KINZENZENGO,Ferme Niati,18.05945,-5.329710007,,FERME,KWILU,oui
MOSANGO,KINZENZENGO,Ferme Palestine,17.97078,-5.226180077,,FERME,KWILU,oui
MOSANGO,KINZENZENGO,Ferme Pana,18.02688,-5.235129833,,FERME,KWILU,oui
MOSANGO,KINZENZENGO,Ferme Tshade,18.0546,-5.33577013,,FERME,KWILU,oui
MOSANGO,KINZENZENGO,Ferme Yufula,17.96539,-5.257619858,,FERME,KWILU,oui
MOSANGO,KINZENZENGO,Mumanga,17.95028,-5.332069874,,VILLAGE,KWILU,oui
MOSANGO,KINZENZENGO,Pont Riviere Bulumuni,18.05103,-5.228139877,,REPERE GEOGRAPHIQUE,KWILU,oui
MOSANGO,KINZENZENGO,Pont Riviere Kingulubi,18.03997,-5.251930237,,REPERE GEOGRAPHIQUE,KWILU,oui
MOSANGO,KINZANDA,Pont Riviere Putambumba,18.09632,-5.345369816,,REPERE GEOGRAPHIQUE,KWILU,oui
MOSANGO,KINZENZENGO,Pont Riviere Yeye,18.04321,-5.404220104,,REPERE GEOGRAPHIQUE,KWILU,oui
MOSANGO,KINZENZENGO,Riviere Kitombe,18.05206,-5.280990124,,REPERE GEOGRAPHIQUE,KWILU,oui
MOSANGO,KINZENZENGO,Riviere Masila,17.94938,-5.328120232,,REPERE GEOGRAPHIQUE,KWILU,oui
MOSANGO,KINZENZENGO,Riviere Mbangu,18.04704,-5.241390228,,REPERE GEOGRAPHIQUE,KWILU,oui
MOSANGO,KINZENZENGO,Riviere Yeye,17.9737,-5.299980164,,REPERE GEOGRAPHIQUE,KWILU,oui
MOSANGO,KIPEMBE,Campement,18.04301,-5.216819763,,REPERE GEOGRAPHIQUE,KWILU,oui
MOSANGO,KIPEMBE,Ferme Gwado,18.01029,-5.202579975,,FERME,KWILU,oui
MOSANGO,KIPEMBE,Ferme Kilembula/Ferme Beto Mosi,17.97563,-5.187200069,,FERME,KWILU,oui
MOSANGO,KIPEMBE,Ferme Kingombe,17.96889,-5.218259811,,FERME,KWILU,oui
MOSANGO,KIPEMBE,Ferme Konda,18.00243,-5.156829834,,FERME,KWILU,oui
MOSANGO,KIPEMBE,Ferme Konda/Ferme Kinsiona,18.03055555,-5.161736112,,FERME,KWILU,oui
MOSANGO,KIPEMBE,Ferme Munzambakani,17.9738,-5.192900181,,FERME,KWILU,oui
MOSANGO,KIPEMBE,Ferme Musekedi,17.9931,-5.156529903,,FERME,KWILU,oui
MOSANGO,KIPEMBE,Ferme Ngolo Ya Kileke,18.0145,-5.207839966,,FERME,KWILU,oui
MOSANGO,KIPEMBE,Ferme Yindula/Ferme Kikwit,17.97511,-5.190370083,,FERME,KWILU,oui
MOSANGO,KIPEMBE,Ferme Yolo/Ferme Kinginda,17.98069,-5.213280201,,FERME,KWILU,oui
MOSANGO,KIPEMBE,Ferme Yumbu,17.9703,-5.187009811,,FERME,KWILU,oui
MOSANGO,KIPEMBE,Kitotila,17.97639,-5.156439781,,VILLAGE,KWILU,oui
MOSANGO,KIPEMBE,Lukulu,17.98498,-5.177050114,,VILLAGE,KWILU,oui
MOSANGO,KIPEMBE,Pont Riviere Mulala Ngubu,17.99407,-5.146220207,,REPERE GEOGRAPHIQUE,KWILU,oui
MOSANGO,KIPEMBE,Pont Riviere Yeye,17.9959,-5.186979771,,REPERE GEOGRAPHIQUE,KWILU,oui
MOSANGO,KIPEMBE,Riviere Lukulu,17.99224,-5.18253994,,REPERE GEOGRAPHIQUE,KWILU,oui
MOSANGO,KIPEMBE,Riviere Mulala,17.98803,-5.157050133,,REPERE GEOGRAPHIQUE,KWILU,oui
MOSANGO,KIPEMBE,Riviere Yeye,17.99793,-5.153789997,,REPERE GEOGRAPHIQUE,KWILU,oui
MOSANGO,KIPWANGA,Ferme Kikakala,18.27233,-4.829559803,,FERME,KWILU,oui
MOSANGO,KIPWANGA,Ferme Ngemba,18.2636,-4.951159954,,FERME,KWILU,oui
MOSANGO,KIPWANGA,Mbanza Ngulu,18.2546143,-4.850370847,,VILLAGE,KWILU,oui
MOSANGO,KIPWANGA,Pont Riviere Gobari,18.26804,-4.834499836,,REPERE GEOGRAPHIQUE,KWILU,oui
MOSANGO,KIPWANGA,Risiere Kungombe,18.28294,-4.934179783,,REPERE GEOGRAPHIQUE,KWILU,oui
MOSANGO,KIPWANGA,Riviere Kungombe,18.269,-4.94712019,,REPERE GEOGRAPHIQUE,KWILU,oui
MOSANGO,KIPWANGA,Ruisseau Mbumbesi,18.2763,-4.921679974,,REPERE GEOGRAPHIQUE,KWILU,oui
MOSANGO,KIPWANGA,Ruisseau Mbumbesi,18.28707,-4.917310238,,REPERE GEOGRAPHIQUE,KWILU,oui
MOSANGO,KIPWANGA,Ruisseau Mubidi,18.26569,-4.938129902,,REPERE GEOGRAPHIQUE,KWILU,oui
MOSANGO,KITAMBO,Camp EP Kinangulu,18.03509,-4.71337986,,VILLAGE,KWILU,oui
MOSANGO,KITAMBO,Camp Kibalula,18.04262,-4.757999897,,VILLAGE,KWILU,oui
MOSANGO,KITAMBO,Ferme Adip,18.05323,-4.73499012,,FERME,KWILU,oui
MOSANGO,KITAMBO,Ferme Kikidi,17.99567,-4.750929832,,FERME,KWILU,oui
MOSANGO,KITAMBO,Ferme Kingalufwa,18.01732,-4.745769978,,FERME,KWILU,oui
MOSANGO,KITAMBO,Pasasi Ii/Mabanza Mpa,18.03046,-4.711420059,,VILLAGE,KWILU,oui
MOSANGO,KITAMBO,Pont Riviere Kafi,17.97879,-4.748119831,,REPERE GEOGRAPHIQUE,KWILU,oui
MOSANGO,KUMBI MBWANA,Camp Enseignants,18.20776,-4.75756979,,VILLAGE,KWILU,oui
MOSANGO,KUMBI MBWANA,Ferme Kitambo,18.21089,-4.817009926,,FERME,KWILU,oui
MOSANGO,KUMBI MBWANA,Ferme Lumeka,18.25214,-4.752739906,,FERME,KWILU,oui
MOSANGO,KUMBI MBWANA,Ferme Luzolo,18.26421,-4.741680145,,FERME,KWILU,oui
MOSANGO,KUMBI MBWANA,Ferme Mukoto,18.26201,-4.768489838,,FERME,KWILU,oui
MOSANGO,KUMBI MBWANA,Ferme Muwanda,18.2366,-4.797959805,,FERME,KWILU,oui
MOSANGO,KUMBI MBWANA,Ferme Wala Wala,18.25728,-4.806330204,,FERME,KWILU,oui
MOSANGO,KUMBI MBWANA,Riviere Gobari,18.24306,-4.786839962,,REPERE GEOGRAPHIQUE,KWILU,oui
MOSANGO,KUMBI MBWANA,Riviere Gobari,18.24678,-4.809100151,,REPERE GEOGRAPHIQUE,KWILU,oui
MOSANGO,KUMBI MBWANA,Riviere Kikuluba,18.24514,-4.747940063,,REPERE GEOGRAPHIQUE,KWILU,oui
MOSANGO,KUMBI MBWANA,Riviere Kikuluba,18.26586,-4.750520229,,REPERE GEOGRAPHIQUE,KWILU,oui
MOSANGO,KUMBI MBWANA,Riviere Mabwati,18.21238,-4.799349785,,REPERE GEOGRAPHIQUE,KWILU,oui
MOSANGO,KUMBI MBWANA,Riviere Mabwati,18.20655,-4.797359943,,REPERE GEOGRAPHIQUE,KWILU,oui
MOSANGO,KUMBI MBWANA,Riviere Mbelenge,18.22502,-4.795249939,,REPERE GEOGRAPHIQUE,KWILU,oui
MOSANGO,KUMBI MBWANA,Riviere Misimbidi,18.27415,-4.78042984,,REPERE GEOGRAPHIQUE,KWILU,oui
MOSANGO,KUMBI MBWANA,Riviere Misimbidi,18.28528,-4.776509762,,REPERE GEOGRAPHIQUE,KWILU,oui
MOSANGO,KUMBI MBWANA,Riviere Mulondo,18.2119,-4.757810116,,REPERE GEOGRAPHIQUE,KWILU,oui
MOSANGO,MANGUNGU,Camp Ep Matanga Mushima,18.15001,-5.042029858,,VILLAGE,KWILU,oui
MOSANGO,MANGUNGU,Camp Institut Ngemba,18.05089,-5.146140099,,VILLAGE,KWILU,oui
MOSANGO,MANGUNGU,Camp Kimbanguiste Kinvundji,18.16464,-5.132319927,,VILLAGE,KWILU,oui
MOSANGO,MANGUNGU,Ferme Betani,18.13775,-5.046229839,,FERME,KWILU,oui
MOSANGO,MANGUNGU,Ferme Butatu Busantu,18.14994,-5.06622982,,FERME,KWILU,oui
MOSANGO,MANGUNGU,Ferme Bwala Yulu,18.09131,-5.09044981,,FERME,KWILU,oui
MOSANGO,MANGUNGU,Ferme Canane,18.14945,-5.141200066,,FERME,KWILU,oui
MOSANGO,MANGUNGU,Ferme Dambos,18.04773,-5.101890087,,FERME,KWILU,oui
MOSANGO,MANGUNGU,Ferme Espoir,18.12335,-5.091119766,,FERME,KWILU,oui
MOSANGO,MANGUNGU,Ferme Gundji,18.16547,-5.110229969,,FERME,KWILU,oui
MOSANGO,MANGUNGU,Ferme Hay,18.09244,-5.131639957,,FERME,KWILU,oui
MOSANGO,MANGUNGU,Ferme Kabuba,18.11809,-5.034729958,,FERME,KWILU,oui
MOSANGO,MANGUNGU,Ferme Kamangu,18.13649,-5.058489799,,FERME,KWILU,oui
MOSANGO,MANGUNGU,Ferme Kanzuzi,18.11811,-5.208069801,,FERME,KWILU,oui
MOSANGO,MANGUNGU,Ferme Kapalanga,18.15337,-5.179130077,,FERME,KWILU,oui
MOSANGO,MANGUNGU,Ferme Kimenika,18.05475,-5.13270998,,FERME,KWILU,oui
MOSANGO,MANGUNGU,Ferme Kisala,18.0702,-5.129010201,,FERME,KWILU,oui
MOSANGO,MANGUNGU,Ferme Kuyanduka,18.10775,-5.10804987,,FERME,KWILU,oui
MOSANGO,MANGUNGU,Ferme Lumbamba,18.16565,-5.165860176,,FERME,KWILU,oui
MOSANGO,MANGUNGU,Ferme Luzolo,18.07772,-5.197509766,,FERME,KWILU,oui
MOSANGO,MANGUNGU,Ferme Luzolo,18.17451,-5.150670052,,FERME,KWILU,oui
MOSANGO,MANGUNGU,Ferme Mabomgo,18.11306,-5.058869839,,FERME,KWILU,oui
MOSANGO,MANGUNGU,Ferme Makumuka Pierre,18.09014,-5.115660191,,FERME,KWILU,oui
MOSANGO,MANGUNGU,Ferme Mandefu,18.05928,-5.126920223,,FERME,KWILU,oui
MOSANGO,MANGUNGU,Ferme Maseka,18.06137,-5.103919983,,FERME,KWILU,oui
MOSANGO,MANGUNGU,Ferme Mayidula,18.09433,-5.116159916,,FERME,KWILU,oui
MOSANGO,MANGUNGU,Ferme Mbati,18.102,-5.030399799,,FERME,KWILU,oui
MOSANGO,MANGUNGU,Ferme Mibamba,18.12921,-5.088709831,,FERME,KWILU,oui
MOSANGO,MANGUNGU,Ferme Michel,18.10564,-5.015349865,,FERME,KWILU,oui
MOSANGO,MANGUNGU,Ferme Mikula,18.1069,-5.010849953,,FERME,KWILU,oui
MOSANGO,MANGUNGU,Ferme Mosango I/Ferme Mosango Ii,18.09037,-5.108280182,,FERME,KWILU,oui
MOSANGO,MANGUNGU,Ferme Projet,18.06948,-5.184160233,,FERME,KWILU,oui
MOSANGO,MANGUNGU,Ferme Sanzimbu,18.09295,-5.158130169,,FERME,KWILU,oui
MOSANGO,MANGUNGU,Ferme Tala Meso,18.12295,-5.192709923,,FERME,KWILU,oui
MOSANGO,MANGUNGU,Ferme Yindula,18.08142,-5.095530033,,FERME,KWILU,oui
MOSANGO,MANGUNGU,Ferme Yumbu Musa,18.06676,-5.132760048,,FERME,KWILU,oui
MOSANGO,MANGUNGU,Ferme Zaba/Ferme Salawey,18.14447,-5.181190014,,FERME,KWILU,oui
MOSANGO,MANGUNGU,Kinvundji Kinzasu/Ferme Yumbu Mutiaka,18.16168,-5.108469963,,VILLAGE,KWILU,oui
MOSANGO,MANGUNGU,Lukumu,18.08322,-5.148200035,,VILLAGE,KWILU,oui
MOSANGO,MANGUNGU,Pont Riviere Misongu,18.13359193,-5.186496939,,REPERE GEOGRAPHIQUE,KWILU,oui
MOSANGO,MANGUNGU,Pont Riviere Vushi,18.06967,-5.185810089,,REPERE GEOGRAPHIQUE,KWILU,oui
MOSANGO,MANGUNGU,Riviere Kafi,18.15114,-5.041969776,,REPERE GEOGRAPHIQUE,KWILU,oui
MOSANGO,MANGUNGU,Riviere Kimbangu,18.10702,-5.116189957,,REPERE GEOGRAPHIQUE,KWILU,oui
MOSANGO,MANGUNGU,Riviere Luteki,18.08913,-5.144609928,,REPERE GEOGRAPHIQUE,KWILU,oui
MOSANGO,MANGUNGU,Riviere Makungu,18.16522,-5.115099907,,REPERE GEOGRAPHIQUE,KWILU,oui
MOSANGO,MANGUNGU,Riviere Mangungu,18.09471,-5.124380112,,REPERE GEOGRAPHIQUE,KWILU,oui
MOSANGO,MANGUNGU,Riviere Misongu,18.11485,-5.219649792,,REPERE GEOGRAPHIQUE,KWILU,oui
MOSANGO,MANGUNGU,Riviere Ngadi,18.12425,-5.086500168,,REPERE GEOGRAPHIQUE,KWILU,oui
MOSANGO,MANGUNGU,Riviere Sombosi,18.16888,-5.140359879,,REPERE GEOGRAPHIQUE,KWILU,oui
MOSANGO,MANGUNGU,Riviere Vushi,18.05248,-5.150949955,,REPERE GEOGRAPHIQUE,KWILU,oui
MOSANGO,MANGUNGU,Riviere Wamba,18.14891,-5.054920197,,REPERE GEOGRAPHIQUE,KWILU,oui
MOSANGO,MOSANGO,Camp Medecin,18.11855,-4.829659939,,VILLAGE,KWILU,oui
MOSANGO,MOSANGO,Ferme Atandele,18.06011,-4.81016016,,FERME,KWILU,oui
MOSANGO,MOSANGO,Ferme Buseki,18.05121,-4.802189827,,FERME,KWILU,oui
MOSANGO,MOSANGO,Ferme Kibeti,18.07429,-4.822219849,,FERME,KWILU,oui
MOSANGO,MOSANGO,Ferme Kikoshi/Ferme Tubu,17.99957,-4.791230202,,FERME,KWILU,oui
MOSANGO,MOSANGO,Ferme Kimbuku,18.00638,-4.821119785,,FERME,KWILU,oui
MOSANGO,MOSANGO,Ferme Masia,18.06006944,-4.823676844,,FERME,KWILU,oui
MOSANGO,MOSANGO,Luzasa II,18.15642,-4.8677001,,VILLAGE,KWILU,oui
MOSANGO,MOSANGO,Mikwati/Ferme Mikwati,18.06745,-4.823699951,,VILLAGE,KWILU,oui
MOSANGO,MOSANGO,Mosango Ngamikanda,18.10247,-4.870920181,,VILLAGE,KWILU,oui
MOSANGO,MOSANGO,Pont Riviere Mukula,18.01259,-4.809889793,,REPERE GEOGRAPHIQUE,KWILU,oui
MOSANGO,MOSANGO,Riviere Mabodioko,18.05766,-4.811220169,,REPERE GEOGRAPHIQUE,KWILU,oui
MOSANGO,MOSANGO,Riviere Punu,17.99942,-4.797659874,,REPERE GEOGRAPHIQUE,KWILU,oui
MOSANGO,MUDIAMBU,Camp EP III Kumbi,18.15224,-4.698800087,,VILLAGE,KWILU,oui
MOSANGO,MUDIAMBU,BEASTH / KONGO,18.16004,-4.70566988,,VILLAGE,KWILU,oui
MOSANGO,MUDIAMBU,Ferme Mikani,18.17527,-4.661230087,,FERME,KWILU,oui
MOSANGO,MUDIAMBU,Ferme Musima,18.17171,-4.666779995,,FERME,KWILU,oui
MOSANGO,MUDIAMBU,Kingoma,18.11022,-4.667200089,,VILLAGE,KWILU,oui
MOSANGO,MUDIAMBU,Pont Ruisseau Mbadi,18.17172,-4.631969929,,REPERE GEOGRAPHIQUE,KWILU,oui
MOSANGO,MUDIAMBU,Riviere Gobari,18.18182,-4.629069805,,REPERE GEOGRAPHIQUE,KWILU,oui
MOSANGO,MUDIAMBU,Ruisseau Say,18.17517,-4.659599781,,REPERE GEOGRAPHIQUE,KWILU,oui
MOSANGO,MUDIAMBU,Ruisseau Sembula,18.18791918,-4.677328046,,REPERE GEOGRAPHIQUE,KWILU,oui
MOSANGO,MULUMA,Camp Vallee,18.11611,-4.72728014,,VILLAGE,KWILU,oui
MOSANGO,MULUMA,Ferme Gbadolite,18.06186,-4.742949963,,FERME,KWILU,oui
MOSANGO,MULUMA,Muluma Parking,18.08913,-4.759439945,,VILLAGE,KWILU,oui
MOSANGO,MULUMA,Riviere Bunda,18.16527,-4.714869976,,REPERE GEOGRAPHIQUE,KWILU,oui
MOSANGO,MULUMA,Riviere Mbunzingombe,18.16235,-4.716080189,,REPERE GEOGRAPHIQUE,KWILU,oui
MOSANGO,MUWANDA KOSO,Ferme Kibolo,18.1538,-4.741809845,,FERME,KWILU,oui
MOSANGO,MUWANDA KOSO,Ngongo Antenne Vodacom,18.13994,-4.782810211,,VILLAGE,KWILU,oui
MOSANGO,MUWANDA KOSO,Riviere Bunda,18.14906,-4.734409809,,REPERE GEOGRAPHIQUE,KWILU,oui
MOSANGO,MUWANDA KOSO,Riviere Kakaku,18.1973,-4.803780079,,REPERE GEOGRAPHIQUE,KWILU,oui
MOSANGO,MUWANDA KOSO,Riviere Mbelenge,18.19265,-4.820650101,,REPERE GEOGRAPHIQUE,KWILU,oui
MOSANGO,MUWANDA KOSO,Riviere Mosango,18.19564,-4.816899776,,REPERE GEOGRAPHIQUE,KWILU,oui
MOSANGO,MUWANDA KOSO,Riviere Mukelemu,18.19715,-4.804969788,,REPERE GEOGRAPHIQUE,KWILU,oui
MOSANGO,MUWANDA KOSO,Riviere Mulondo,18.16624,-4.789740086,,REPERE GEOGRAPHIQUE,KWILU,oui
MOSANGO,TUMIKIA,Riviere Mikia,18.07163,-4.644690037,,REPERE GEOGRAPHIQUE,KWILU,oui
MOSANGO,TUMIKIA,Riviere Yomina,18.05029,-4.683690071,,REPERE GEOGRAPHIQUE,KWILU,oui
MOSANGO,YENZI,Ferme Kanza,18.1757,-4.695119858,,FERME,KWILU,oui
MOSANGO,YENZI,Ferme Manzomanzo,18.16579,-4.703649998,,FERME,KWILU,oui
MOSANGO,YENZI,Ferme Mbanza,18.21955,-4.712200165,,FERME,KWILU,oui
MOSANGO,YENZI,Ferme Toyota,18.16669,-4.700479984,,FERME,KWILU,oui
MOSANGO,YENZI,Pont Riviere Bidundu,18.20834,-4.716629982,,REPERE GEOGRAPHIQUE,KWILU,oui
MOSANGO,YENZI,Pont Riviere Bunda,18.17573,-4.707230091,,REPERE GEOGRAPHIQUE,KWILU,oui
MOSANGO,YENZI,Pont Riviere Gobari,18.20839,-4.708809853,,REPERE GEOGRAPHIQUE,KWILU,oui
MOSANGO,YENZI,Pont Riviere Kitwembe,18.17846,-4.706029892,,REPERE GEOGRAPHIQUE,KWILU,oui
MOSANGO,YENZI,Pont Riviere Mbwanambwesth,18.18264,-4.703430176,,REPERE GEOGRAPHIQUE,KWILU,oui
MOSANGO,YENZI,Riviere Bengi,18.17754,-4.733019829,,REPERE GEOGRAPHIQUE,KWILU,oui
MOSANGO,YENZI,Riviere Bidundu,18.18731,-4.734260082,,REPERE GEOGRAPHIQUE,KWILU,oui
MOSANGO,YENZI,Riviere Bunda,18.18916,-4.698919773,,REPERE GEOGRAPHIQUE,KWILU,oui
MOSANGO,YENZI,Riviere Bunda,18.19151,-4.696650028,,REPERE GEOGRAPHIQUE,KWILU,oui
MOSANGO,YENZI,Riviere Bunda,18.19614,-4.69494009,,REPERE GEOGRAPHIQUE,KWILU,oui
MOSANGO,YENZI,Riviere Djwa,18.20124,-4.702179909,,REPERE GEOGRAPHIQUE,KWILU,oui
MOSANGO,YENZI,Riviere Kinzambi,18.20857,-4.741330147,,REPERE GEOGRAPHIQUE,KWILU,oui
MOSANGO,YENZI,Riviere Kom,18.16561,-4.714650154,,REPERE GEOGRAPHIQUE,KWILU,oui
MOSANGO,YENZI,Riviere Lumumba,18.18723,-4.734250069,,REPERE GEOGRAPHIQUE,KWILU,oui
MOSANGO,YENZI,Riviere Lumumba,18.20809,-4.739170074,,REPERE GEOGRAPHIQUE,KWILU,oui
MOSANGO,YENZI,Riviere Manka Manka,18.16733,-4.70277977,,REPERE GEOGRAPHIQUE,KWILU,oui
MOSANGO,YENZI,Riviere Marathia,18.20614,-4.710319996,,REPERE GEOGRAPHIQUE,KWILU,oui
MOSANGO,YENZI,Riviere Mbunzingombe,18.16247,-4.71600008,,REPERE GEOGRAPHIQUE,KWILU,oui
MOSANGO,YENZI,Riviere Misanda,18.19351,-4.690149784,,REPERE GEOGRAPHIQUE,KWILU,oui
MOSANGO,YENZI,Riviere Musangu,18.21859,-4.711229801,,REPERE GEOGRAPHIQUE,KWILU,oui
MOSANGO,YENZI,Riviere Mwanambwesth,18.20252,-4.703549862,,REPERE GEOGRAPHIQUE,KWILU,oui
MOSANGO,YENZI,Riviere Ngamporo,18.19628,-4.698890209,,REPERE GEOGRAPHIQUE,KWILU,oui
MOSANGO,YENZI,Riviere Sembula,18.1880638,-4.677698526,,REPERE GEOGRAPHIQUE,KWILU,oui
MOSANGO,YENZI,Tanganika,18.18878,-4.69329977,,VILLAGE,KWILU,oui
MOSANGO,YENZI,Institut Bashi,18.18451389,-4.72951389,,VILLAGE,KWILU,oui
MOSANGO,KINZAMBA II,Camp Kimbanguiste,17.99589874,-5.039686673,,VILLAGE,KWILU,oui
MOSANGO,KINZAMBA II,Yeye,17.9625,-5.111805557,,VILLAGE,KWILU,oui
MOSANGO,KINZAMBA II,Tongo-Tongo,17.93326389,-5.175416667,,VILLAGE,KWILU,oui
MOSANGO,KASAY,CAMP BULUNGU,18.33395833,-4.884444445,339,VILLAGE,KWILU,oui
MOSANGO,KASAY,CAMP LUZOLO,18.32284,-4.879370213,446,VILLAGE,KWILU,oui
MOSANGO,KASAY,CAMP MANZA,18.35971,-4.956620216,164,VILLAGE,KWILU,oui
MOSANGO,KASAY,KASAY VILLAGE,18.31096,-4.882999897,1497,CS,KWILU,oui
MOSANGO,KASAY,KASAY POSTE,18.33918,-4.877960205,1788,VILLAGE,KWILU,oui
MOSANGO,KASAY,KIBENGI VILLAGE,18.33413,-4.947159767,502,VILLAGE,KWILU,oui
MOSANGO,KASAY,MBANZA KIKUMBI,18.34294,-4.983310223,386,VILLAGE,KWILU,oui
MOSANGO,KASAY,MUKILU POSTE,18.30971,-4.836730003,171,PS,KWILU,oui
MOSANGO,KASAY,MUKILU VILLAGE,18.31533,-4.843120098,551,VILLAGE,KWILU,oui
MOSANGO,KASAY,PUNZA I,18.31962,-4.832159996,286,VILLAGE,KWILU,oui
MOSANGO,KASAY,PUNZA II,18.30180555,-4.838541668,379,VILLAGE,KWILU,oui
MOSANGO,KASAY,SAMBA,18.31052,-4.966420174,365,VILLAGE,KWILU,oui
MOSANGO,KINZAMBA I,ELEVAGE MAMBOMA,18.225454,-5.022897303,113,VILLAGE,KWILU,oui
MOSANGO,KINZAMBA I,GOBARI I,18.33601,-5.113090038,635,VILLAGE,KWILU,oui
MOSANGO,KINZAMBA I,GOBARI II,18.28017,-5.142020226,374,VILLAGE,KWILU,oui
MOSANGO,KINZAMBA I,GOBARI III,18.25841,-5.145060062,175,VILLAGE,KWILU,oui
MOSANGO,KINZAMBA I,KAZAMBA WANGA,18.15483,-4.97382021,114,PS,KWILU,oui
MOSANGO,KINZAMBA I,KIKONJI,18.16662,-5.049980164,430,VILLAGE,KWILU,oui
MOSANGO,KINZAMBA I,KINDAMBI,18.23775,-5.100739956,327,VILLAGE,KWILU,oui
MOSANGO,KINZAMBA I,KINGWADI,18.28474,-4.978449821,167,VILLAGE,KWILU,oui
MOSANGO,KINZAMBA I,KINZAMBA VILLAGE,18.24471,-5.093400002,287,CS,KWILU,oui
MOSANGO,KINZAMBA I,KINZAMBA CAMP,18.25189,-5.039500237,259,VILLAGE,KWILU,oui
MOSANGO,KINZAMBA I,KITSHIAMBA KONDA,18.20311,-4.998189926,882,VILLAGE,KWILU,oui
MOSANGO,KINZAMBA I,KITSHIAMBA MATUTA,18.22012,-5.011950016,496,VILLAGE,KWILU,oui
MOSANGO,KINZAMBA I,KOBO,18.27642,-5.047949791,316,VILLAGE,KWILU,oui
MOSANGO,KINZAMBA I,MOSANGO MALUMALU,18.26202,-4.985479832,397,VILLAGE,KWILU,oui
MOSANGO,KINZAMBA I,MUBOKO,18.13583,-4.953479767,756,VILLAGE,KWILU,oui
MOSANGO,KINZAMBA I,MOWAKA,18.32151,-5.002739906,396,VILLAGE,KWILU,oui
MOSANGO,KINZAMBA II,FERME KAFUNGU,18.09784,-5.069590092,46,FERME,KWILU,oui
MOSANGO,KINZAMBA II,FERME MUPUNZI,17.98222222,-5.091041667,32,FERME,KWILU,oui
MOSANGO,KINZAMBA II,KIBWIMBA,17.98846332,-5.133523941,1079,VILLAGE,KWILU,oui
MOSANGO,KINZAMBA II,KIKAMBA,17.99757,-5.066440105,442,VILLAGE,KWILU,oui
MOSANGO,KINZAMBA II,KIKWATI,18.05345,-5.052030087,822,VILLAGE,KWILU,oui
MOSANGO,KINZAMBA II,KILEMBE,18.05095,-5.053629875,822,VILLAGE,KWILU,oui
MOSANGO,KINZAMBA II,KINDALA KIKOMBO,17.99722222,-5.123125,589,VILLAGE,KWILU,oui
MOSANGO,KINZAMBA II,KINDALA NGANGI,17.98117,-5.111690044,465,VILLAGE,KWILU,oui
MOSANGO,KINZAMBA II,KINGOMBE NINGA NINGA,18.03885,-5.108029842,445,VILLAGE,KWILU,oui
MOSANGO,KINZAMBA II,KINGOYI KISEMI,18.03413,-5.098989964,266,VILLAGE,KWILU,oui
MOSANGO,KINZAMBA II,KINZAMBA CENTRE,17.99382,-5.087920189,775,VILLAGE,KWILU,oui
MOSANGO,KINZAMBA II,KINZAMBA FOREAMI,17.99943,-5.078499794,415,VILLAGE,KWILU,oui
MOSANGO,KINZAMBA II,KINZAMBA MBALA,17.99917,-5.075789928,335,CS,KWILU,oui
MOSANGO,KINZAMBA II,KINZAMBA YEYE,17.97565,-5.09954977,691,VILLAGE,KWILU,oui
MOSANGO,KINZAMBA II,KIPASI,18.0152,-5.056049824,706,VILLAGE,KWILU,oui
MOSANGO,KINZAMBA II,KIPATA MUSUSU,17.93534722,-5.171319445,1326,PS,KWILU,oui
MOSANGO,KINZAMBA II,KIVUNDA,17.94638889,-5.138888889,517,VILLAGE,KWILU,oui
MOSANGO,KINZAMBA II,LOKOSHI BAMBALA,18.09018,-5.056580067,839,VILLAGE,KWILU,oui
MOSANGO,KINZAMBA II,LOKOSHI BANGONGO,18.06377,-5.05880022,687,VILLAGE,KWILU,oui
MOSANGO,KINZAMBA II,MBULU,17.9824,-5.119609833,1411,VILLAGE,KWILU,oui
MOSANGO,KINZAMBA II,MBUSHI,18.02458,-5.071720123,396,VILLAGE,KWILU,oui
MOSANGO,KINZAMBA II,MOSENGE,18.00146,-5.042059898,462,VILLAGE,KWILU,oui
MOSANGO,KINZAMBA II,MWANAKANGU,18.03349,-5.079249859,359,VILLAGE,KWILU,oui
MOSANGO,KINZANDA,BANGALALA,18.11682,-5.369840145,867,VILLAGE,KWILU,oui
MOSANGO,KINZANDA,CAMP CANTONNIER,18.1977,-5.305230141,172,VILLAGE,KWILU,oui
MOSANGO,KINZANDA,KAKUNJI,18.18346,-5.258560181,676,VILLAGE,KWILU,oui
MOSANGO,KINZANDA,KAMINGU,18.18324,-5.342889786,529,VILLAGE,KWILU,oui
MOSANGO,KINZANDA,KANOSHI,18.15906,-5.266719818,361,VILLAGE,KWILU,oui
MOSANGO,KINZANDA,KASODI,18.18285,-5.326749802,349,VILLAGE,KWILU,oui
MOSANGO,KINZANDA,KIHUNGA,18.19437,-5.210309982,338,VILLAGE,KWILU,oui
MOSANGO,KINZANDA,KINGOMBE I,18.13129,-5.323550224,473,VILLAGE,KWILU,oui
MOSANGO,KINZANDA,KINZANDA,18.14691,-5.291729927,405,CS,KWILU,oui
MOSANGO,KINZANDA,LUHEMBA KAFI,18.18685,-5.227389812,676,VILLAGE,KWILU,oui
MOSANGO,KINZENZENGO,KANDONDOLO,17.96611,-5.282239914,273,VILLAGE,KWILU,oui
MOSANGO,KINZENZENGO,KAZAMBA,17.9746,-5.329959869,"268
",VILLAGE,KWILU,oui
MOSANGO,KINZENZENGO,KIBOTI,17.97137,-5.228380203,553,VILLAGE,KWILU,oui
MOSANGO,KINZENZENGO,KIFUNGULU,17.95344,-5.305650234,1023,VILLAGE,KWILU,oui
MOSANGO,KINZENZENGO,KIMBIMBI,17.97292,-5.234220028,1210,VILLAGE,KWILU,oui
MOSANGO,KINZENZENGO,KINZENZENGO,17.96392,-5.299759865,773,CS,KWILU,oui
MOSANGO,KINZENZENGO,KITOMBE,18.06372,-5.295919895,828,PS,KWILU,oui
MOSANGO,KINZENZENGO,KITSHAYI,18.05863,-5.337339878,327,VILLAGE,KWILU,oui
MOSANGO,KINZENZENGO,KIVANDA,17.96674,-5.24985981,756,VILLAGE,KWILU,oui
MOSANGO,KINZENZENGO,LUHEMBA I,18.03393639,-5.305933004,218,VILLAGE,KWILU,oui
MOSANGO,KINZENZENGO,MUKUKU,17.96794,-5.277830124,245,VILLAGE,KWILU,oui
MOSANGO,KINZENZENGO,MULUTU,18.04867,-5.255819798,959,VILLAGE,KWILU,oui
MOSANGO,KINZENZENGO,MUNDU,18.03806,-5.320330143,275,VILLAGE,KWILU,oui
MOSANGO,KIPEMBE,BISANJI,18.05597,-5.217969894,221,VILLAGE,KWILU,oui
MOSANGO,KIPEMBE,KIMBUSHI,17.97333,-5.202519894,233,VILLAGE,KWILU,oui
MOSANGO,KIPEMBE,KINGOMBE,17.98238,-5.153950214,713,VILLAGE,KWILU,oui
MOSANGO,KIPEMBE,KIPEMBE,17.97908,-5.178500175,1818,CS,KWILU,oui
MOSANGO,KIPEMBE,KISALA,18.03206,-5.158989906,208,VILLAGE,KWILU,oui
MOSANGO,KIPEMBE,KUMBI,18.02082,-5.168670177,120,VILLAGE,KWILU,oui
MOSANGO,KIPEMBE,KINZAMBANZONVI,17.97566,-5.214369774,1754,PS,KWILU,oui
MOSANGO,KIPWANGA,FERME MABWA,18.28623,-4.914919853,27,FERME,KWILU,oui
MOSANGO,KIPWANGA,KAHEMBA,18.18095,-4.912849903,155,VILLAGE,KWILU,oui
MOSANGO,KIPWANGA,KAZAMBA,18.24546,-4.855110168,461,VILLAGE,KWILU,oui
MOSANGO,KIPWANGA,KIKAKALA,18.27678,-4.83427,182,VILLAGE,KWILU,oui
MOSANGO,KIPWANGA,KIKAMA,18.20938,-4.858119965,651,VILLAGE,KWILU,oui
MOSANGO,KIPWANGA,KIKWATI,18.28066,-4.94907999,443,VILLAGE,KWILU,oui
MOSANGO,KIPWANGA,KIMANU,18.27848,-4.886600018,334,VILLAGE,KWILU,oui
MOSANGO,KIPWANGA,KINDUNDU,18.25511,-4.889920235,875,VILLAGE,KWILU,oui
MOSANGO,KIPWANGA,KIPWANGA CS,18.24041,-4.860660076,34,CS,KWILU,oui
MOSANGO,KIPWANGA,KIPWANGA,18.23217,-4.872940063,658,VILLAGE,KWILU,oui
MOSANGO,KIPWANGA,KOSHI MULUWA,18.20753,-4.921070099,387,VILLAGE,KWILU,oui
MOSANGO,KIPWANGA,KOSHI AVION,18.20309,-4.958390236,41,VILLAGE,KWILU,oui
MOSANGO,KIPWANGA,KOSHI BALA BALA,18.22969,-4.944479942,293,VILLAGE,KWILU,oui
MOSANGO,KIPWANGA,MABOKI,18.28546,-4.924379826,400,VILLAGE,KWILU,oui
MOSANGO,KIPWANGA,MBWENDI FIOTI,18.25888,-4.849609852,814,VILLAGE,KWILU,oui
MOSANGO,KIPWANGA,SANGI,18.28209,-4.916840076,235,VILLAGE,KWILU,oui
MOSANGO,KIPWANGA,YOKO,18.25118,-4.945549965,367,VILLAGE,KWILU,oui
MOSANGO,KITAMBO,KINANGULA,18.03817,-4.714240074,890,VILLAGE,KWILU,oui
MOSANGO,KITAMBO,KITAMBO VILLAGE,18.03916,-4.764589787,353,VILLAGE,KWILU,oui
MOSANGO,KITAMBO,KITAMBO PLATEAU,18.04922,-4.754169941,369,VILLAGE,KWILU,oui
MOSANGO,KITAMBO,KITAMBO POSTE,18.0441,-4.755489826,791,CS,KWILU,oui
MOSANGO,KITAMBO,MAMBOMA,18.00104,-4.747399807,970,VILLAGE,KWILU,oui
MOSANGO,KITAMBO,MWINDA,18.01272,-4.744719982,1759,VILLAGE,KWILU,oui
MOSANGO,KITAMBO,PASASI,18.02902,-4.748760223,971,VILLAGE,KWILU,oui
MOSANGO,KUMBI MBWANA,BAGATA,18.27451,-4.804890156,376,VILLAGE,KWILU,oui
MOSANGO,KUMBI MBWANA,KAMBA,18.22693,-4.780739784,79,VILLAGE,KWILU,oui
MOSANGO,KUMBI MBWANA,KIYANZI,18.20919,-4.793389797,600,VILLAGE,KWILU,oui
MOSANGO,KUMBI MBWANA,POSTE KIYANZI,18.22612,-4.801089764,137,VILLAGE,KWILU,oui
MOSANGO,KUMBI MBWANA,KUMBI MBWANA,18.25393,-4.782209873,600,CS,KWILU,oui
MOSANGO,KUMBI MBWANA,KUMBI POSTE,18.25309,-4.778100014,677,VILLAGE,KWILU,oui
MOSANGO,KUMBI MBWANA,KWATSHI,18.26962,-4.795889854,514,VILLAGE,KWILU,oui
MOSANGO,KUMBI MBWANA,KWAYA,18.27672,-4.764239788,688,VILLAGE,KWILU,oui
MOSANGO,KUMBI MBWANA,MAZEMBA,18.24137,-4.744810104,410,VILLAGE,KWILU,oui
MOSANGO,KUMBI MBWANA,MBWEDI I,18.22809,-4.818059921,688,VILLAGE,KWILU,oui
MOSANGO,KUMBI MBWANA,MIBAMBI,18.29691,-4.783360004,407,VILLAGE,KWILU,oui
MOSANGO,KUMBI MBWANA,POSTE MIBAMBI,18.31486,-4.781680107,88,VILLAGE,KWILU,oui
MOSANGO,KUMBI MBWANA,MISIMBIDI,18.26857,-4.775290012,219,VILLAGE,KWILU,oui
MOSANGO,KUMBI MBWANA,MULONDO,18.20328,-4.754670143,429,VILLAGE,KWILU,oui
MOSANGO,KUMBI MBWANA,MUNDANDA,18.21245,-4.751450062,434,VILLAGE,KWILU,oui
MOSANGO,KUMBI MBWANA,NGOMBE,18.27659,-4.789569855,65,VILLAGE,KWILU,oui
MOSANGO,KUMBI MBWANA,NZOMBI,18.24,-4.810070038,52,VILLAGE,KWILU,oui
MOSANGO,KUMBI MBWANA,SENGI,18.22503,-4.820650101,88,VILLAGE,KWILU,oui
MOSANGO,KUMBI MBWANA,SONDJI,18.21759,-4.763030052,1059,PS,KWILU,oui
MOSANGO,MANGUNGU,BUTINDI,18.07299,-5.094659805,374,VILLAGE,KWILU,oui
MOSANGO,MANGUNGU,FERME KANGOMA,18.07784,-5.185609818,26,FERME,KWILU,oui
MOSANGO,MANGUNGU,FERME NDENU,18.13123,-5.046790123,15,FERME,KWILU,oui
MOSANGO,MANGUNGU,FERME ZEBEDE,18.12202,-5.084569931,6,FERME,KWILU,oui
MOSANGO,MANGUNGU,KANIKA,18.09319,-5.000100136,1631,PS,KWILU,oui
MOSANGO,MANGUNGU,KIMAFU,18.04767,-5.169489861,280,VILLAGE,KWILU,oui
MOSANGO,MANGUNGU,KIMBAMBA,18.13203,-5.186719894,174,VILLAGE,KWILU,oui
MOSANGO,MANGUNGU,KABEBA,18.16836,-5.116590023,248,VILLAGE,KWILU,oui
MOSANGO,MANGUNGU,KINDINGA,18.05405,-5.137819767,589,VILLAGE,KWILU,oui
MOSANGO,MANGUNGU,KINGOY,18.04725,-5.109159946,932,VILLAGE,KWILU,oui
MOSANGO,MANGUNGU,KINVUNDJI,18.16856,-5.13601017,406,VILLAGE,KWILU,oui
MOSANGO,MANGUNGU,LUTEKI,18.11852,-5.152480125,119,VILLAGE,KWILU,oui
MOSANGO,MANGUNGU,MAMBATA,18.0657,-5.097509861,218,VILLAGE,KWILU,oui
MOSANGO,MANGUNGU,MANGUNGU VILLAGE,18.09824,-5.114570141,287,VILLAGE,KWILU,oui
MOSANGO,MANGUNGU,MANGUNGU CENTRE,18.10424,-5.114820004,57,CS,KWILU,oui
MOSANGO,MANGUNGU,MISONGO,18.11547,-5.215310097,99,VILLAGE,KWILU,oui
MOSANGO,MANGUNGU,MUSHIMA,18.14407,-5.049779892,540,VILLAGE,KWILU,oui
MOSANGO,MANGUNGU,MUTANUNU,18.08978,-5.14207983,38,VILLAGE,KWILU,oui
MOSANGO,MANGUNGU,MUTEMA,18.08901,-5.157179832,192,VILLAGE,KWILU,oui
MOSANGO,MANGUNGU,NGADI,18.15447,-5.088459969,250,VILLAGE,KWILU,oui
MOSANGO,MANGUNGU,SETUKA,18.08987,-4.98472023,1022,VILLAGE,KWILU,oui
MOSANGO,MANGUNGU,VUSHI,18.06006944,-5.18875,174,VILLAGE,KWILU,oui
MOSANGO,MOSANGO,CAMP CALINA,18.11956,-4.835330009,136,VILLAGE,KWILU,oui
MOSANGO,MOSANGO,CAMP KIBALU,18.12535,-4.822859764,469,VILLAGE,KWILU,oui
MOSANGO,MOSANGO,CAMP MAJORITE,18.12529,-4.834330082,475,CS,KWILU,oui
MOSANGO,MOSANGO,CAMP POMPE,18.11256,-4.843309879,7531,VILLAGE,KWILU,oui
MOSANGO,MOSANGO,KIBWINGI,18.16315,-4.828800201,252,VILLAGE,KWILU,oui
MOSANGO,MOSANGO,KIKONJI,18.14034,-4.922550201,1094,VILLAGE,KWILU,oui
MOSANGO,MOSANGO,KIMBUKU,17.99923,-4.827159882,270,VILLAGE,KWILU,oui
MOSANGO,MOSANGO,KINGWANGALA,18.15316,-4.901249886,456,VILLAGE,KWILU,oui
MOSANGO,MOSANGO,KUMBI BANGA BANGA,18.04422,-4.82363987,1205,VILLAGE,KWILU,oui
MOSANGO,MOSANGO,KUMBI FIOTI,18.00238,-4.805439949,930,VILLAGE,KWILU,oui
MOSANGO,MOSANGO,KUMBI MAKOPA,18.03958,-4.821809769,916,PS,KWILU,oui
MOSANGO,MOSANGO,LUZASA,18.15204,-4.864500046,657,VILLAGE,KWILU,oui
MOSANGO,MOSANGO,MBANZA FIOTI,18.15389,-4.804800034,310,VILLAGE,KWILU,oui
MOSANGO,MOSANGO,MOSANGO VILLAGE,18.12324,-4.835599899,1416,HGR,KWILU,oui
MOSANGO,MOSANGO,SECTEUR MOSANGO,18.11612,-4.88451004,1221,PS,KWILU,oui
MOSANGO,MUDIAMBU,FERME MATATA,18.16731,-4.67648983,10,FERME,KWILU,oui
MOSANGO,MUDIAMBU,KIMBIMBI,18.1402,-4.680940151,736,VILLAGE,KWILU,oui
MOSANGO,MUDIAMBU,KIMWANZA,18.17027,-4.652639866,411,VILLAGE,KWILU,oui
MOSANGO,MUDIAMBU,KIPASI,18.16922,-4.594399929,1515,PS,KWILU,oui
MOSANGO,MUDIAMBU,KONGO,18.15444,-4.69520998,556,VILLAGE,KWILU,oui
MOSANGO,MUDIAMBU,MAVULA,18.14824,-4.679059982,547,VILLAGE,KWILU,oui
MOSANGO,MUDIAMBU,MBAMBALAKOKO,18.17224,-4.639090061,625,VILLAGE,KWILU,oui
MOSANGO,MUDIAMBU,MBANZA MUNDAYI,18.17182,-4.675230026,1259,VILLAGE,KWILU,oui
MOSANGO,MUDIAMBU,FERME MBELELE,18.18909,-4.675549984,12,VILLAGE,KWILU,oui
MOSANGO,MUDIAMBU,MIKWATI,18.12564,-4.662509918,576,VILLAGE,KWILU,oui
MOSANGO,MUDIAMBU,MUDIAMBU,18.15126,-4.659890175,821,CS,KWILU,oui
MOSANGO,MULUMA,BIBULUKU,18.13207,-4.730999947,224,VILLAGE,KWILU,oui
MOSANGO,MULUMA,BUNDA,18.10455,-4.752719879,371,VILLAGE,KWILU,oui
MOSANGO,MULUMA,KINDUNDU,18.09531,-4.770850182,217,VILLAGE,KWILU,oui
MOSANGO,MULUMA,KISALA,18.05909722,-4.755555557,1004,VILLAGE,KWILU,oui
MOSANGO,MULUMA,KIVANVA VILLAGE,18.11292,-4.731100082,136,VILLAGE,KWILU,oui
MOSANGO,MULUMA,MBUNZINGOMBE,18.11652,-4.722740173,240,VILLAGE,KWILU,oui
MOSANGO,MULUMA,MULUMA VILLAGE,18.09622,-4.755390167,265,VILLAGE,KWILU,oui
MOSANGO,MULUMA,MULUMA CENTRE,18.09231,-4.763030052,1764,CS,KWILU,oui
MOSANGO,MULUMA,MUNDONDA I,18.07631944,-4.77888889,147,VILLAGE,KWILU,oui
MOSANGO,MULUMA,MUNDONDA II,18.09441,-4.775829792,371,VILLAGE,KWILU,oui
MOSANGO,MULUMA,MUSUMBA,18.14642,-4.72137022,279,VILLAGE,KWILU,oui
MOSANGO,MUWANDA KOSO,KABEBA I,18.1986,-4.799759865,643,VILLAGE,KWILU,oui
MOSANGO,MUWANDA KOSO,KABEBA II,18.19098,-4.809569836,284,VILLAGE,KWILU,oui
MOSANGO,MUWANDA KOSO,KIMOLO I,18.17191,-4.736430168,235,VILLAGE,KWILU,oui
MOSANGO,MUWANDA KOSO,KIMOLO II,18.18027778,-4.745763889,146,VILLAGE,KWILU,oui
MOSANGO,MUWANDA KOSO,KISALA,18.14573,-4.731709957,333,VILLAGE,KWILU,oui
MOSANGO,MUWANDA KOSO,KIYAMBA,18.18694,-4.84676981,640,PS,KWILU,oui
MOSANGO,MUWANDA KOSO,MATUNDU,18.17277,-4.800630093,412,VILLAGE,KWILU,oui
MOSANGO,MUWANDA KOSO,MUWANDA POSTE,18.16748,-4.752880096,146,VILLAGE,KWILU,oui
MOSANGO,MUWANDA KOSO,MUWANDA VILLAGE,18.16865,-4.760670185,650,CS,KWILU,oui
MOSANGO,MUWANDA KOSO,NGONGO KAHUNDA,18.14392,-4.779250145,285,VILLAGE,KWILU,oui
MOSANGO,MUWANDA KOSO,NGONGO KANZINDONDO,18.14307,-4.76970005,230,VILLAGE,KWILU,oui
MOSANGO,MUWANDA KOSO,NGONGO MUKWATI,18.15312,-4.778930187,697,VILLAGE,KWILU,oui
MOSANGO,MUWANDA KOSO,NGULA,18.17539,-4.75838995,521,VILLAGE,KWILU,oui
MOSANGO,MUWANDA KOSO,POLONGO,18.19395,-4.812940121,240,PS,KWILU,oui
MOSANGO,TUMIKIA,KINGOMA,18.05325,-4.683529854,572,FERME,KWILU,oui
MOSANGO,TUMIKIA,KIKASA KASA,18.06761,-4.666009903,176,VILLAGE,KWILU,oui
MOSANGO,TUMIKIA,KIMBANDA NJINJI,18.08181,-4.710720062,513,VILLAGE,KWILU,oui
MOSANGO,TUMIKIA,KIMPUTU PLC,18.05887,-4.660490036,225,VILLAGE,KWILU,oui
MOSANGO,TUMIKIA,KINGAFIOTI,18.12502,-4.697720051,450,VILLAGE,KWILU,oui
MOSANGO,TUMIKIA,KINGOMEMWANZA,18.04768,-4.685319901,308,VILLAGE,KWILU,oui
MOSANGO,TUMIKIA,KINZUKU,18.0643,-4.654250145,1006,VILLAGE,KWILU,oui
MOSANGO,TUMIKIA,KISALA NGUBU,18.07682,-4.639110088,407,VILLAGE,KWILU,oui
MOSANGO,TUMIKIA,MABAMFU,18.07307,-4.704239845,266,VILLAGE,KWILU,oui
MOSANGO,TUMIKIA,MBELO MUMBONGA,18.10611,-4.671160221,287,VILLAGE,KWILU,oui
MOSANGO,TUMIKIA,MUNDONDA,18.14253,-4.702410221,190,VILLAGE,KWILU,oui
MOSANGO,TUMIKIA,SAKAMBANZA,18.07616,-4.684000015,1079,VILLAGE,KWILU,oui
MOSANGO,TUMIKIA,TUMIKIA VILLAGE,18.09542,-4.689610004,626,VILLAGE,KWILU,oui
MOSANGO,TUMIKIA,TUMIKIA MISSION,18.09057,-4.683650017,1362,CS,KWILU,oui
MOSANGO,YENZI,YENZI,18.20502,-4.708879948,150,CS,KWILU,oui
MOSANGO,YENZI,KAYANDA,18.20618,-4.725319862,1006,VILLAGE,KWILU,oui
MOSANGO,YENZI,KIBWANGA,18.20072,-4.70870018,331,VILLAGE,KWILU,oui
MOSANGO,YENZI,KIMBANDA KUMBI,18.16885,-4.712200165,888,VILLAGE,KWILU,oui
MOSANGO,YENZI,KIMBWALU I,18.24575,-4.721419811,473,VILLAGE,KWILU,oui
MOSANGO,YENZI,KIMBWALU II,18.22497,-4.719270229,287,VILLAGE,KWILU,oui
MOSANGO,YENZI,KINDUNDU BASONGO,18.1851,-4.693520069,307,VILLAGE,KWILU,oui
MOSANGO,YENZI,KISEKI,18.19464,-4.684350014,369,VILLAGE,KWILU,oui
MOSANGO,YENZI,POSTE KONGO,18.16308,-4.707890034,143,VILLAGE,KWILU,oui
MOSANGO,YENZI,KUMBI MUNZIASA,18.18052,-4.72108984,602,VILLAGE,KWILU,oui
MOSANGO,YENZI,MBELO KIBWANGA,18.18729,-4.705890179,365,VILLAGE,KWILU,oui
MOSANGO,YENZI,MBELO LUFUNGULA,18.17277,-4.708680153,229,VILLAGE,KWILU,oui
MOSANGO,YENZI,MUNDONDA,18.19044,-4.73842001,475,VILLAGE,KWILU,oui
MOSANGO,YENZI,MUSUKU BENGI,18.20694444,-4.713402779,116,VILLAGE,KWILU,oui
MOSANGO,MUDIAMBU,FERME PEPA,18.17104167,-4.64326389,8,VILLAGE,KWILU,oui
MOSANGO,MUDIAMBU,FERME ADOLPH,18.14871321,-4.667208224,9,VILLAGE,KWILU,oui
MOSANGO,YENZI,CAMP WENZE,18.20194444,-4.706666668,356,VILLAGE,KWILU,oui
MOSANGO,MULUMA,KIVANVA MISSION,18.11032287,-4.733172787,483,VILLAGE,KWILU,oui
MOSANGO,KUMBI MBWANA,POSTE SONDJI,18.21423611,-4.762222223,29,VILLAGE,KWILU,oui
MOSANGO,KIPWANGA,FERME MBANZA,18.28131944,-4.904652778,45,VILLAGE,KWILU,oui
MOSANGO,KIPWANGA,FERME KIMANU,18.28201389,-4.886250001,20,VILLAGE,KWILU,oui
MOSANGO,KIPWANGA,FERME NDUNGA,18.28109598,-4.956873211,34,VILLAGE,KWILU,oui
MOSANGO,KIPWANGA,FERME KASIMA,18.28533319,-4.942573729,27,VILLAGE,KWILU,oui
MOSANGO,KIPWANGA,FERME TUMUSENGE,18.27588536,-4.954092781,24,VILLAGE,KWILU,oui
MOSANGO,KIPWANGA,KOSHI BARIERE,18.21486111,-4.91701389,799,VILLAGE,KWILU,oui
MOSANGO,KASAY,PUNZA PLC,18.29722222,-4.836805556,100,VILLAGE,KWILU,oui
MOSANGO,KASAY,CAMP DIBAYA,18.35247778,-4.94064111,235,VILLAGE,KWILU,oui
MOSANGO,MANGUNGU,KINZASHI,18.12263889,-5.212916667,205,VILLAGE,KWILU,oui
MOSANGO,KINZAMBA II,FERME TOMBI,17.99527778,-5.046875,17,VILLAGE,KWILU,oui
MOSANGO,KINZAMBA II,FERME FELO,17.95076389,-5.150486112,30,VILLAGE,KWILU,oui
MOSANGO,KINZAMBA II,HPK MUSENGE,17.99875,-5.040208334,1097,VILLAGE,KWILU,oui
MOSANGO,KINZAMBA II,FERME KASENDE,17.95893155,-5.157484421,43,VILLAGE,KWILU,oui
MOSANGO,KINZAMBA I,Yoko,18.24357033,-5.055819988,,VILLAGE,KWILU,oui
KIMPUTU,BA NSIENGWON,BA NSIENGWON,19.41513087,-4.463757673,5896,CS,KWILU,oui
KIMPUTU,BA NSIENGWON,Ferme Kayiba,19.41291046,-4.4573102,,FERME,KWILU,oui
KIMPUTU,BA NSIENGWON,Ferme Maswana,19.42910957,-4.464300156,,FERME,KWILU,oui
KIMPUTU,BA NSIENGWON,Ferme Muyobi,19.34679985,-4.497119904,,FERME,KWILU,oui
KIMPUTU,BA NSIENGWON,LUBANG FIOTI,19.39142036,-4.472559929,146,VILLAGE,KWILU,oui
KIMPUTU,BA NSIENGWON,LUBANG NENE,19.36097222,-4.490694446,2064,PS,KWILU,oui
KIMPUTU,BA NSIENGWON,MATE MAYUM,19.37841988,-4.457560062,105,VILLAGE,KWILU,oui
KIMPUTU,BA NSIENGWON,MBANG ITERE,19.43154907,-4.426569939,236,PS,KWILU,oui
KIMPUTU,BA NSIENGWON,MBELE BITI,19.438125,-4.420902779,94,VILLAGE,KWILU,oui
KIMPUTU,BA NSIENGWON,MBELE NSIRIAM,19.42958333,-4.439444446,271,VILLAGE,KWILU,oui
KIMPUTU,BA NSIENGWON,Ndung Djanga Djanga,19.41740036,-4.469250202,,VILLAGE,KWILU,oui
KIMPUTU,BA NSIENGWON,Ndung Ekiem,19.42136002,-4.47823,,VILLAGE,KWILU,oui
